,city,lat,lon,max temp,humidity,cloudiness,wind speed,country,date
0,Mogadishu,2.0371,45.3438,77.67,81,67,23.64,SO,1644430843
1,George Town,5.4112,100.3354,80.53,95,20,3.44,MY,1644430895
2,Mahina,-17.5065,-149.489,82.17,74,20,5.75,PF,1644430940
3,Miyako,39.6367,141.9525,32.52,71,100,1.7,JP,1644430941
4,Saint Paul Harbor,57.79,-152.4072,24.31,63,0,8.05,US,1644430941
5,Bambous Virieux,-20.3428,57.7575,77.25,83,40,4.61,MU,1644430942
6,Avarua,-21.2078,-159.775,77.05,88,99,1.14,CK,1644430942
7,Rocha,-34.4833,-54.3333,77.92,46,7,8.52,UY,1644430942
8,Airai,-8.9266,125.4092,61.29,93,100,1.21,TL,1644430776
9,Anadyr,64.75,177.4833,-21.5,76,0,11.18,RU,1644430943
10,Norman Wells,65.282,-126.8329,-9.36,59,100,26.46,CA,1644430943
11,Yellowknife,62.456,-114.3525,-11.7,73,100,8.05,CA,1644430741
12,Rikitea,-23.1203,-134.9692,78.75,67,3,16.31,PF,1644430944
13,Sisimiut,66.9395,-53.6735,15.26,95,100,16.17,GL,1644430944
14,Saint-Philippe,-21.3585,55.7679,76.59,79,98,7.49,RE,1644430944
15,Clyde River,70.4692,-68.5914,-19.97,76,100,26.46,CA,1644430945
16,Ostrovnoy,68.0531,39.5131,25.14,85,100,24.36,RU,1644430868
17,Bredasdorp,-34.5322,20.0403,70.92,64,0,12.66,ZA,1644430889
18,Tazovsky,67.4667,78.7,-1.75,95,73,11.95,RU,1644430946
19,Fria,10.4167,-13.5833,81.21,23,71,6.31,GN,1644430946
20,Ushuaia,-54.8,-68.3,58.62,41,40,14.97,AR,1644430879
21,Qaanaaq,77.484,-69.3632,-20.76,78,93,5.03,GL,1644430779
22,Punta Arenas,-53.15,-70.9167,53.11,37,68,29.35,CL,1644430888
23,Upernavik,72.7868,-56.1549,-12.33,68,94,8.97,GL,1644430947
24,Hobart,-42.8794,147.3294,60.66,83,100,0.0,AU,1644430918
25,Yanliang,34.6592,109.2292,31.19,61,3,3.47,CN,1644430947
26,Butaritari,3.0707,172.7902,81.64,78,100,15.86,KI,1644430947
27,Carauari,-4.8828,-66.8958,81.57,75,96,3.38,BR,1644430948
28,Mataura,-46.1927,168.8643,59.49,99,100,1.88,NZ,1644430948
29,Godda,24.8333,87.2167,66.96,56,60,2.28,IN,1644430948
30,Casper,42.8666,-106.3131,44.51,39,20,16.11,US,1644430949
31,Waipawa,-41.4122,175.5153,68.63,98,99,5.17,NZ,1644430949
32,Haileybury,47.449,-79.6373,23.58,92,100,8.48,CA,1644430949
33,Bethel,41.3712,-73.414,45.28,52,0,8.05,US,1644430950
34,Port Washington,40.8257,-73.6982,47.98,46,0,10.36,US,1644430950
35,Kavaratti,10.5669,72.642,80.29,69,94,13.29,IN,1644430950
36,Ponta do Sol,32.6667,-17.1,70.72,61,100,7.36,PT,1644430951
37,Tateyama,34.9833,139.8667,45.1,75,99,15.95,JP,1644430951
38,Pangnirtung,66.1451,-65.7125,-13.0,64,20,2.3,CA,1644430951
39,Geraldton,-28.7667,114.6,64.81,82,0,8.05,AU,1644430952
40,Zabul Province,32.25,67.25,34.68,57,0,8.32,AF,1644430952
41,Muros,42.7762,-9.0603,59.23,84,0,6.33,ES,1644430952
42,Khatanga,71.9667,102.5,-0.96,91,100,15.37,RU,1644430953
43,Nikolskoye,59.7035,30.7861,35.71,95,57,8.12,RU,1644430953
44,Okha,53.5739,142.9478,11.68,95,100,13.13,RU,1644430954
45,Cidreira,-30.1811,-50.2056,74.84,61,40,10.8,BR,1644430954
46,Quatre Cocos,-20.2078,57.7625,77.11,76,27,8.16,MU,1644430954
47,Sainte-Marie,-20.8968,55.5496,77.16,83,0,10.36,RE,1644430955
48,Pyshma,56.9523,63.2513,9.41,93,66,7.74,RU,1644430955
49,New Norfolk,-42.7826,147.0587,60.3,65,84,1.01,AU,1644430893
50,Carnarvon,-24.8667,113.6333,77.45,71,0,22.68,AU,1644430921
51,Karatau,43.1667,70.4667,28.06,76,22,4.07,KZ,1644430956
52,Cape Town,-33.9258,18.4232,72.88,73,0,9.22,ZA,1644430771
53,Assiut,27.181,31.1837,56.57,33,0,13.18,EG,1644430798
54,Klaksvík,62.2266,-6.589,32.92,97,99,5.53,FO,1644430956
55,Esperance,-33.8667,121.9,61.12,81,26,9.55,AU,1644430957
56,Shimoda,34.6667,138.95,40.1,93,100,17.07,JP,1644430957
57,Mahébourg,-20.4081,57.7,77.29,83,40,4.61,MU,1644430957
58,Hermanus,-34.4187,19.2345,69.91,82,1,13.6,ZA,1644430958
59,Los Llanos de Aridane,28.6585,-17.9182,69.55,53,0,4.61,ES,1644430958
60,Malibu,34.005,-118.8101,83.68,15,0,6.46,US,1644430958
61,Pevek,69.7008,170.3133,-31.49,99,100,5.68,RU,1644430959
62,Makkah al Mukarramah,21.4267,39.8261,74.53,71,22,3.85,SA,1644430736
63,Port Macquarie,-31.4333,152.9167,60.76,82,31,4.21,AU,1644430959
64,Zaraza,9.3503,-65.3245,95.52,28,95,6.85,VE,1644430960
65,Arrifes,37.7667,-25.7,63.23,72,20,12.66,PT,1644430960
66,Kruisfontein,-34.0033,24.7314,67.89,81,0,4.88,ZA,1644430960
67,Alvarães,-3.2208,-64.8042,87.67,62,100,4.18,BR,1644430961
68,Puerto Lempira,15.2667,-83.7667,86.14,74,40,11.5,HN,1644430961
69,Busselton,-33.65,115.3333,61.09,67,35,11.86,AU,1644430961
70,Saint Anthony,45.0205,-93.218,35.78,72,100,19.57,US,1644430920
71,Vardø,70.3705,31.1107,26.8,86,75,14.97,NO,1644430962
72,Bandarbeyla,9.4942,50.8122,75.38,66,29,19.24,SO,1644430962
73,Bluff,-46.6,168.3333,59.81,97,98,5.5,NZ,1644430963
74,Tuktoyaktuk,69.4541,-133.0374,-31.0,68,75,14.97,CA,1644430903
75,Tura,25.5198,90.2201,56.77,65,1,4.0,IN,1644430963
76,Sittwe,20.15,92.9,66.45,45,4,9.42,MM,1644430963
77,Berbera,10.4396,45.0143,76.66,65,1,7.52,SO,1644430964
78,Tsumeb,-19.2333,17.7167,72.95,59,74,3.98,NA,1644430964
79,Antalaha,-14.9003,50.2788,77.09,89,22,2.08,MG,1644430965
80,Atuona,-9.8,-139.0333,77.99,78,19,17.72,PF,1644430965
81,Dzilam González,21.2833,-88.9333,74.98,62,38,8.93,MX,1644430965
82,Hay River,60.8156,-115.7999,-4.02,77,100,9.22,CA,1644430966
83,Ţahţā,26.7693,31.5021,58.68,33,0,17.27,EG,1644430966
84,Hasaki,35.7333,140.8333,39.6,59,93,13.02,JP,1644430966
85,Bay Roberts,47.5999,-53.2648,40.14,88,90,8.99,CA,1644430967
86,San Patricio,28.017,-97.5169,71.69,36,0,3.13,US,1644430701
87,Alice Springs,-23.7,133.8833,72.95,68,45,5.75,AU,1644430937
88,Faanui,-16.4833,-151.75,81.14,77,66,16.46,PF,1644430886
89,Nicoya,10.1483,-85.452,89.15,36,18,11.86,CR,1644430967
90,Severo-Kuril'sk,50.6789,156.125,31.53,87,100,17.81,RU,1644430968
91,Verkhnevilyuysk,63.4453,120.3167,-36.47,100,95,1.01,RU,1644430968
92,Artigas,-30.4,-56.4667,88.9,21,0,2.55,UY,1644430969
93,Talnakh,69.4865,88.3972,-13.4,94,93,10.04,RU,1644430969
94,Mpika,-11.8343,31.4529,61.57,92,97,0.47,ZM,1644430969
95,Barcelos,41.5388,-8.6151,60.85,74,1,1.03,PT,1644430970
96,Vaini,-21.2,-175.2,78.96,94,20,6.91,TO,1644430900
97,Qaqortoq,60.7167,-46.0333,14.5,67,99,10.29,GL,1644430970
98,Puerto Ayora,-0.7393,-90.3518,80.56,70,40,9.66,EC,1644430971
99,Madison Heights,42.4859,-83.1052,43.07,63,0,11.5,US,1644430971
100,Yulara,-25.2406,130.9889,75.04,53,0,5.75,AU,1644430971
101,Ilulissat,69.2167,-51.1,12.22,62,100,18.41,GL,1644430972
102,Turukhansk,65.8167,87.9833,-22.27,97,39,7.36,RU,1644430972
103,Labuhan,-6.8844,112.2051,76.71,89,100,9.84,ID,1644430972
104,Chokurdakh,70.6333,147.9167,-37.68,99,92,8.61,RU,1644430973
105,Jamestown,42.097,-79.2353,49.32,52,40,16.11,US,1644430891
106,Sørland,67.667,12.6934,35.46,63,94,24.7,NO,1644430973
107,Albany,42.6001,-73.9662,43.48,54,9,1.99,US,1644430959
108,Zaykovo,57.5613,62.7568,10.56,94,65,6.49,RU,1644430874
109,Dayton,39.7589,-84.1916,51.58,56,0,17.27,US,1644430694
110,Gouyave,12.1646,-61.7296,83.17,65,40,18.41,GD,1644430974
111,Port Alfred,-33.5906,26.891,69.24,81,0,8.14,ZA,1644430974
112,Dikson,73.5069,80.5464,0.05,94,99,21.45,RU,1644430974
113,Chui,-33.6971,-53.4616,75.83,53,41,10.29,UY,1644430975
114,Barrow,71.2906,-156.7887,-23.78,62,0,14.97,US,1644430975
115,Takoradze,4.8845,-1.7554,80.89,78,15,9.89,GH,1644430975
116,Kiryat Gat,31.61,34.7642,56.08,100,62,18.68,IL,1644430892
117,Conakry,9.538,-13.6773,86.07,58,29,6.91,GN,1644430976
118,Patria,11.7403,122.0171,76.3,85,14,12.71,PH,1644430976
119,Pundaguitan,6.3711,126.1689,80.91,75,100,10.33,PH,1644430977
120,Manggar,-2.8833,108.2667,77.05,86,100,5.3,ID,1644430977
121,Guerrero Negro,27.9769,-114.0611,68.56,29,33,3.02,MX,1644430977
122,Vieux-Habitants,16.0589,-61.7659,82.71,63,6,11.99,GP,1644430978
123,Iskateley,67.6803,53.1512,13.6,85,91,21.77,RU,1644430978
124,Mahibadhoo,3.7833,72.9667,81.86,70,73,10.47,MV,1644430978
125,Tevaitoa,-16.7833,-151.5,81.01,78,58,16.62,PF,1644430979
126,Amurzet,47.6967,131.0981,3.99,97,100,6.02,RU,1644430979
127,Saskylakh,71.9167,114.0833,-9.72,96,39,7.29,RU,1644430905
128,Tuatapere,-46.1333,167.6833,59.83,98,80,0.67,NZ,1644430781
129,Kahului,20.8947,-156.47,74.84,75,20,4.61,US,1644430980
130,Coruripe,-10.1256,-36.1756,85.46,60,14,13.24,BR,1644430980
131,Tabas,33.5959,56.9244,54.55,25,18,6.51,IR,1644430981
132,Beloha,-25.1667,45.05,74.97,79,22,4.99,MG,1644430981
133,Sitka,57.0531,-135.33,46.29,87,100,13.8,US,1644430982
134,Florø,61.5996,5.0328,39.96,81,75,18.41,NO,1644430982
135,Iqaluit,63.7506,-68.5145,-16.31,62,20,12.66,CA,1644430904
136,Caravelas,-17.7125,-39.2481,84.96,61,67,10.76,BR,1644430918
137,Senno,59.5336,33.9167,20.35,98,79,5.79,RU,1644430983
138,Nizhniy Tsasuchey,50.5167,115.1333,-5.19,97,99,4.54,RU,1644430983
139,Ribeira Grande,38.5167,-28.7,63.0,59,20,16.11,PT,1644430984
140,Kayes,14.0,-11.0,95.2,6,1,8.37,ML,1644430945
141,Kyzyl-Suu,42.3414,78.0056,22.53,84,100,6.33,KG,1644430984
142,Castro,-24.7911,-50.0119,73.26,67,46,4.36,BR,1644430985
143,Venado Tuerto,-33.7456,-61.9688,84.78,24,0,8.23,AR,1644430985
144,Sola,-13.8833,167.55,81.95,80,100,27.0,VU,1644430985
145,Dorado,18.4588,-66.2677,84.76,73,40,12.66,PR,1644430986
146,Havre-St-Pierre,50.2334,-63.5986,37.99,56,0,12.66,CA,1644430986
147,Hilo,19.7297,-155.09,71.26,92,100,8.05,US,1644430906
148,Vestmannaeyjar,63.4427,-20.2734,32.99,59,0,17.27,IS,1644430987
149,Kapaa,22.0752,-159.319,73.72,82,40,11.5,US,1644430925
150,Thompson,55.7435,-97.8558,-3.84,65,40,3.44,CA,1644430987
151,Dongkan,33.9997,119.8308,33.89,83,24,5.97,CN,1644430987
152,Rudnya,54.947,31.0934,31.3,93,82,10.94,RU,1644430988
153,Padang,-0.9492,100.3543,75.61,65,100,7.25,ID,1644430735
154,Ancud,-41.8697,-73.8203,69.42,63,71,11.16,CL,1644430988
155,Proletarskiy,50.7914,35.7731,32.09,98,90,10.6,RU,1644430989
156,Khani,41.9563,42.9566,38.77,88,96,4.72,GE,1644430989
157,Saint George,37.1041,-113.5841,60.35,25,0,5.75,US,1644430861
158,Suntar,62.1444,117.6319,-22.92,100,100,1.74,RU,1644430990
159,Leninskiy,54.2781,37.4558,21.54,99,89,5.75,RU,1644430990
160,Havøysund,70.9963,24.6622,26.83,83,94,11.43,NO,1644430990
161,Kemisē,10.7167,39.8667,71.24,39,40,3.24,ET,1644430991
162,Tiksi,71.6872,128.8694,-12.57,93,100,12.59,RU,1644430991
163,Atikokan,48.7555,-91.6216,21.29,88,100,13.09,CA,1644430991
164,Delījān,33.9905,50.6838,47.19,23,37,3.69,IR,1644430992
165,Virginia Beach,36.8529,-75.978,58.17,39,0,0.0,US,1644430748
166,Cap Malheureux,-19.9842,57.6142,77.49,76,35,1.99,MU,1644430992
167,Port Elizabeth,-33.918,25.5701,70.11,88,0,5.75,ZA,1644430882
168,Fortuna,40.5982,-124.1573,66.54,82,0,5.75,US,1644430992
169,Nakamura,32.9833,132.9333,44.17,97,98,2.55,JP,1644430993
170,Yangi Marg`ilon,40.4272,71.7189,35.02,75,100,4.61,UZ,1644430696
171,Liverpool,53.4106,-2.9779,45.68,74,20,10.36,GB,1644430842
172,Touros,-5.1989,-35.4608,88.7,57,57,12.88,BR,1644430993
173,Hithadhoo,-0.6,73.0833,82.83,71,49,13.2,MV,1644430938
174,Aklavik,68.2191,-135.0107,-22.97,69,100,10.36,CA,1644430917
175,Muroto-misakicho,33.2833,134.15,49.24,67,89,11.77,JP,1644430994
176,Zhigansk,66.7697,123.3711,-34.04,98,100,7.11,RU,1644430994
177,Staunton,38.1496,-79.0717,55.51,27,0,10.36,US,1644430995
178,Westport,41.1415,-73.3579,46.42,53,0,6.91,US,1644430737
179,Urengoy,65.9667,78.3667,-8.01,90,45,10.31,RU,1644430995
180,Departamento de Maldonado,-34.6667,-54.9167,76.39,42,4,5.48,UY,1644430995
181,Ambon City,-3.6954,128.1814,75.34,94,40,4.61,ID,1644430996
182,Carutapera,-1.195,-46.02,80.37,85,50,5.97,BR,1644430996
183,Bonthe,7.5264,-12.505,82.22,72,35,11.5,SL,1644430996
184,Krasnosel'kup,65.7,82.4667,-11.74,87,29,10.74,RU,1644430991
185,Haines Junction,60.7522,-137.5108,35.55,93,89,6.91,CA,1644430997
186,Te Anau,-45.4167,167.7167,61.5,96,93,3.06,NZ,1644430997
187,Laas,46.6166,10.7002,54.86,35,4,2.68,IT,1644430915
188,Raduzhny,62.0961,77.475,-13.86,99,92,5.1,RU,1644430998
189,Coyhaique,-45.5752,-72.0662,66.81,42,40,8.05,CL,1644430928
190,Agüimes,27.9054,-15.4461,76.66,60,0,6.91,ES,1644430998
191,Freeport,40.6576,-73.5832,47.26,53,0,10.36,US,1644430812
192,Lebu,-37.6167,-73.65,64.45,63,2,19.93,CL,1644430999
193,Auki,-8.7676,160.7034,77.92,89,100,8.52,SB,1644430999
194,Oriximiná,-1.7656,-55.8661,85.75,69,74,1.3,BR,1644431000
195,Vanimo,-2.6741,141.3028,77.07,89,89,2.59,PG,1644431000
196,Boa Vista,2.8197,-60.6733,94.98,34,40,6.91,BR,1644431000
197,Ranong,9.9658,98.6348,75.92,89,57,3.65,TH,1644431001
198,Bathsheba,13.2167,-59.5167,81.21,65,75,24.16,BB,1644431001
199,Lagoa,39.05,-27.9833,58.64,73,6,13.78,PT,1644431002
200,College,64.8569,-147.8028,-6.41,75,100,0.0,US,1644431002
201,Yeppoon,-23.1333,150.7333,69.58,71,4,3.38,AU,1644431002
202,Cherskiy,68.75,161.3,-44.32,100,77,4.36,RU,1644431003
203,Spinuş,47.2,22.2,43.05,87,70,8.19,RO,1644431003
204,Berlevåg,70.8578,29.0864,23.0,74,84,31.07,NO,1644431004
205,Belmonte,-15.8631,-38.8828,84.7,66,21,9.57,BR,1644431004
206,Orlik,52.5178,99.825,-24.36,99,88,0.76,RU,1644431004
207,Mattru,7.6244,-11.8332,87.3,55,47,7.65,SL,1644431005
208,Tasiilaq,65.6145,-37.6368,14.16,65,51,10.31,GL,1644431005
209,Nivala,63.9167,24.9667,28.69,92,100,6.53,FI,1644430989
210,Benemérito de las Américas,16.5167,-90.6439,76.73,61,89,2.33,MX,1644431006
211,Kununurra,-15.7667,128.7333,76.98,94,73,0.0,AU,1644431006
212,Pochutla,15.7432,-96.4661,86.83,44,5,5.91,MX,1644431006
213,Forio,40.7342,13.8646,55.42,75,0,3.0,IT,1644431007
214,Bundaberg,-24.85,152.35,66.22,90,0,1.99,AU,1644430884
215,Belyy Yar,53.6039,91.3903,-15.14,74,0,4.47,RU,1644431007
216,Rafsanjān,30.4067,55.9939,54.3,19,0,3.67,IR,1644431007
217,Salalah,17.0151,54.0924,75.29,14,0,8.05,OM,1644431008
218,Gävle,60.6745,17.1417,38.5,79,43,4.0,SE,1644431008
219,Bengkulu,-3.8004,102.2655,77.54,76,100,6.89,ID,1644430903
220,Aleksandrovskiy Zavod,50.9237,117.9374,-14.69,100,92,3.31,RU,1644431008
221,Puerto Gaitán,4.3133,-72.0816,84.49,59,84,7.52,CO,1644430795
222,Vila Franca do Campo,37.7167,-25.4333,65.19,71,11,9.57,PT,1644430956
223,Yong’an,39.6957,113.6871,21.47,59,13,3.98,CN,1644431009
224,Adrar,20.5022,-10.0711,78.35,8,17,11.68,MR,1644431009
225,Seka,17.9285,103.9552,69.73,65,7,5.28,TH,1644431010
226,Tabuk,17.4189,121.4443,71.96,92,83,1.03,PH,1644431010
227,Ugra,54.7777,34.3267,25.83,93,97,4.9,RU,1644431010
228,Khilok,51.3674,110.4676,-5.58,100,96,2.04,RU,1644431011
229,Ketchikan,55.3422,-131.6461,46.38,100,100,20.71,US,1644431011
230,Santiago,-33.4569,-70.6483,90.28,26,0,14.97,CL,1644430875
231,Goderich,43.7501,-81.7165,39.9,70,97,17.27,CA,1644431011
232,Kotelnikowo,47.6317,43.1461,33.24,99,100,11.27,RU,1644431012
233,Bayeux,-7.125,-34.9322,86.63,62,40,10.36,BR,1644431012
234,Ikongo,-21.8833,47.4333,73.24,99,95,1.66,MG,1644431012
235,Broken Hill,-31.95,141.4333,70.52,50,14,20.8,AU,1644431013
236,East London,-33.0153,27.9116,68.94,83,0,8.05,ZA,1644431013
237,Ust'-Omchug,61.15,149.6333,-23.91,88,97,1.25,RU,1644431014
238,Paengaroa,-37.8167,176.4167,72.61,100,100,1.99,NZ,1644431015
239,Saldanha,-33.0117,17.9442,69.85,88,34,7.43,ZA,1644431015
240,Tilichiki,60.4667,166.1,-19.32,84,19,7.76,RU,1644431015
241,Tromsø,69.6496,18.957,32.02,55,40,11.5,NO,1644431016
242,Caldwell,43.6629,-116.6874,44.6,79,75,4.61,US,1644431016
243,Pasłęk,54.0616,19.6593,46.53,87,100,17.31,PL,1644431016
244,Katsuura,35.1333,140.3,45.19,71,100,14.76,JP,1644431017
245,Souillac,-20.5167,57.5167,77.38,83,40,4.61,MU,1644431017
246,Miraflores,19.2167,-98.8083,63.25,34,0,3.8,MX,1644431018
247,Viedma,-40.8135,-62.9967,95.56,24,94,15.03,AR,1644430827
248,Rapid Valley,44.0625,-103.1463,48.33,40,75,25.32,US,1644431019
249,Ereymentau,51.6199,73.1033,-2.52,100,89,4.85,KZ,1644431019
250,Yar-Sale,66.8333,70.8333,2.46,95,62,14.34,RU,1644431019
251,Pacific Grove,36.6177,-121.9166,71.42,49,0,5.99,US,1644430922
252,Muhafazat Lahij,13.1667,44.5833,72.28,70,14,8.05,YE,1644431020
253,Juneau,58.3019,-134.4197,45.21,94,100,10.36,US,1644430991
254,Esfarāyen,37.0765,57.5101,33.46,52,0,3.58,IR,1644431020
255,Provideniya,64.3833,-173.3,-16.56,84,1,6.4,RU,1644431021
256,Senanga,-16.1167,23.2667,71.02,85,98,3.0,ZM,1644431021
257,Lüderitz,-26.6481,15.1594,76.24,49,3,22.88,NA,1644431022
258,Zyryanka,65.75,150.85,-42.84,100,58,5.06,RU,1644431022
259,Araouane,18.9048,-3.5265,76.42,7,1,10.71,ML,1644431022
260,São João da Barra,-21.6403,-41.0511,78.89,85,100,11.59,BR,1644431023
261,Buala,-8.145,159.5921,79.12,83,83,7.72,SB,1644431023
262,Urubamba,-13.3047,-72.1158,68.9,73,100,4.83,PE,1644431023
263,Tarnogskiy Gorodok,60.4997,43.5761,25.66,95,99,6.91,RU,1644431024
264,Faya,18.3851,42.4509,59.11,77,3,4.47,SA,1644431024
265,Lavrentiya,65.5833,-171.0,-23.91,92,60,7.94,RU,1644430897
266,Hualmay,-11.0964,-77.6139,75.22,68,84,8.93,PE,1644430898
267,Lompoc,34.6391,-120.4579,83.12,32,0,5.75,US,1644430878
268,Riyadh,24.6877,46.7219,62.74,24,0,8.63,SA,1644430771
269,Cabo San Lucas,22.8909,-109.9124,79.61,40,0,3.0,MX,1644431025
270,Cayenne,4.9333,-52.3333,77.09,88,75,3.44,GF,1644431025
271,Tessalit,20.1986,1.0114,75.13,6,1,9.64,ML,1644431026
272,Pavlodar,52.3,76.95,-15.0,76,0,13.42,KZ,1644431026
273,Pitimbu,-7.4706,-34.8086,86.59,64,86,11.01,BR,1644431027
274,Gunnedah,-30.9833,150.25,56.82,45,0,4.47,AU,1644431027
275,Prome,18.8167,95.2167,66.07,27,10,4.18,MM,1644431028
276,Dalian,38.9122,121.6022,28.33,86,60,2.24,CN,1644431028
277,Harper,4.375,-7.7169,81.72,77,88,7.96,LR,1644431028
278,Port Hardy,50.6996,-127.4199,46.76,93,100,11.5,CA,1644431029
279,Tres Arroyos,-38.3739,-60.2798,83.82,30,38,11.9,AR,1644431029
280,Am Timan,11.0297,20.2827,82.22,11,5,3.15,TD,1644431029
281,Ingham,42.6,-84.3833,42.75,68,40,12.66,US,1644431030
282,Santa Lucía,27.9117,-15.5407,71.76,60,0,6.91,ES,1644431030
283,Ballina,-28.8667,153.5667,61.95,97,6,5.23,AU,1644431030
284,Mossamedes,-15.1961,12.1522,74.93,75,100,12.84,AO,1644431031
285,San Cristobal,7.7669,-72.225,78.98,56,88,6.15,VE,1644431031
286,Corinth,37.9407,22.9573,50.45,57,5,1.01,GR,1644431032
287,Morecambe,54.0684,-2.8611,45.34,93,59,10.0,GB,1644431032
288,Amahai,-3.3333,128.9167,78.87,84,100,7.29,ID,1644431032
289,Greymouth,-42.4667,171.2,65.44,98,100,7.34,NZ,1644431033
290,Fairbanks,64.8378,-147.7164,-6.39,74,100,0.0,US,1644430883
291,Zhangaözen,43.3,52.8,37.33,63,59,22.28,KZ,1644431033
292,Saint-François,46.4154,3.9054,43.41,70,0,4.61,FR,1644430976
293,Moroto,2.5345,34.6666,74.82,30,74,10.13,UG,1644431034
294,Bonavista,48.6499,-53.1147,40.12,84,100,18.88,CA,1644431034
295,Suez,29.9737,32.5263,55.42,50,33,21.97,EG,1644431034
296,Sabang,5.8933,95.3214,79.65,75,100,5.23,ID,1644431035
297,Vila Velha,-20.3297,-40.2925,75.94,82,40,14.97,BR,1644431035
298,Isangel,-19.55,169.2667,78.89,97,100,30.15,VU,1644431035
299,Palauig,15.435,119.9045,77.81,72,17,5.19,PH,1644431035
300,Kenai,60.5544,-151.2583,19.49,92,100,6.91,US,1644431036
301,Mujiayingzi,42.1167,118.7833,21.38,63,4,5.64,CN,1644431036
302,Ascension,30.2169,-90.9001,65.1,36,0,4.61,US,1644431036
303,Ponta Delgada,37.7333,-25.6667,65.5,72,20,12.66,PT,1644431037
304,Umm Kaddadah,13.6017,26.6876,70.84,12,32,13.02,SD,1644431037
305,Gijang,35.2442,129.2139,38.93,57,100,5.37,KR,1644431037
306,Umluj,25.0213,37.2685,72.37,60,1,5.79,SA,1644431038
307,Leningradskiy,69.3833,178.4167,-25.26,95,96,9.64,RU,1644431038
308,Jaunjelgava,56.6167,25.0833,35.51,97,100,11.32,LV,1644431039
309,Bobo-Dioulasso,11.1771,-4.2979,90.05,9,7,6.91,BF,1644431039
310,Kutum,14.2,24.6667,65.75,12,5,9.46,SD,1644431039
311,Mount Gambier,-37.8333,140.7667,56.68,85,92,4.27,AU,1644431040
312,Amazar,53.858,120.875,-2.94,97,100,3.02,RU,1644431040
313,Vao,-22.6667,167.4833,80.22,88,100,26.69,NC,1644430978
314,Kalas,18.1667,74.8,70.84,28,23,10.0,IN,1644431041
315,Olavarría,-36.8927,-60.3225,80.02,48,5,9.15,AR,1644431041
316,Zhezkazgan,47.8043,67.7144,16.38,98,99,3.51,KZ,1644431042
317,São Miguel do Araguaia,-13.275,-50.1628,79.41,74,100,7.2,BR,1644431042
318,Inhambane,-23.865,35.3833,77.45,76,1,8.14,MZ,1644431042
319,The Valley,18.217,-63.0578,80.46,83,75,14.97,AI,1644431043
320,Coahuayana Viejo,18.7333,-103.6833,85.84,32,0,6.29,MX,1644431043
321,Mar del Plata,-38.0023,-57.5575,78.82,69,0,12.66,AR,1644430751
322,Praia,14.9215,-23.5087,82.94,44,0,16.11,CV,1644430906
323,Cedar City,37.6775,-113.0619,47.37,27,0,12.66,US,1644431044
324,Warrington,53.3925,-2.5802,45.32,75,20,10.36,GB,1644431044
325,Arenápolis,-14.4503,-56.8461,73.24,97,100,0.51,BR,1644431045
326,Batticaloa,7.7102,81.6924,77.41,81,87,8.1,LK,1644431045
327,Balyqshy,47.0667,51.8667,30.2,80,40,20.13,KZ,1644431045
328,Palana,59.1167,159.9667,-5.93,94,18,4.72,RU,1644430985
329,Kuandian,40.7286,124.7847,20.7,90,89,1.25,CN,1644431046
330,Longyearbyen,78.2186,15.6401,8.44,72,75,9.22,SJ,1644431046
331,Ulaanbaatar,47.9077,106.8832,-12.87,77,0,4.47,MN,1644431046
332,Eyl,7.9803,49.8164,74.77,69,7,19.28,SO,1644431047
333,El Alto,-4.2714,-81.2147,82.06,62,100,14.79,PE,1644431047
334,Koslan,63.4564,48.8989,14.61,94,100,11.68,RU,1644431047
335,Taksimo,56.3444,114.8794,-10.7,95,96,1.74,RU,1644430989
336,Leshukonskoye,64.8989,45.7622,17.83,93,100,10.89,RU,1644431048
337,Vera Cruz,-12.6333,-41.0333,88.54,40,1,2.75,BR,1644431048
338,Dingle,10.9995,122.6711,73.69,88,91,8.08,PH,1644431049
339,West Bay,19.3667,-81.4167,83.07,74,75,8.05,KY,1644431049
340,Lázaro Cárdenas,17.9583,-102.2,81.54,56,1,7.16,MX,1644431049
341,Goryachegorsk,55.4053,88.9154,-14.89,99,74,3.31,RU,1644431050
342,Hong Kong,22.2855,114.1577,62.94,83,100,5.99,HK,1644430975
343,Plouzané,48.3833,-4.6167,49.08,93,100,8.05,FR,1644431050
344,Lieksa,63.3167,30.0167,23.86,93,59,11.18,FI,1644431051
345,Rurrenabaque,-14.4413,-67.5278,93.09,59,40,0.0,BO,1644431051
346,Praia da Vitória,38.7333,-27.0667,61.75,82,40,12.01,PT,1644431051
347,Narsaq,60.9167,-46.05,14.22,68,100,9.46,GL,1644431052
348,Tommot,58.9564,126.2925,-14.13,99,100,1.81,RU,1644431052
349,Cobija,-11.0267,-68.7692,89.78,62,75,0.0,BO,1644431052
350,Chifeng,42.2683,118.9636,22.03,63,1,4.76,CN,1644431053
351,Boysun,38.2061,67.1986,33.44,47,100,6.85,UZ,1644431053
352,Mehamn,71.0357,27.8492,26.78,74,0,28.77,NO,1644431054
353,Maceió,-9.6658,-35.7353,89.04,55,40,16.11,BR,1644431054
354,Acapulco de Juárez,16.8634,-99.8901,84.02,58,0,2.3,MX,1644431054
355,Santa Maria,-29.6842,-53.8069,81.7,36,20,6.91,BR,1644431052
356,Luanda,-8.8368,13.2343,78.8,78,40,9.22,AO,1644431055
357,Lamar,33.6668,-95.5836,66.97,17,0,3.44,US,1644431055
358,Luga,58.7372,29.8453,32.41,88,97,11.18,RU,1644431004
359,Yaypan,40.3758,70.8156,39.97,62,100,5.46,UZ,1644431056
360,Washington,47.5001,-120.5015,52.29,74,64,1.9,US,1644430688
361,Itarema,-2.9248,-39.9167,85.5,61,74,13.22,BR,1644430901
362,Xaçmaz,41.4635,48.806,43.07,71,2,7.72,AZ,1644431056
363,Bāfq,31.6128,55.4107,56.44,16,0,2.93,IR,1644431057
364,Cartagena,10.3997,-75.5144,87.42,66,40,16.11,CO,1644430788
365,Kalmunai,7.4167,81.8167,76.23,82,84,7.34,LK,1644431057
366,Saint-Pierre,-21.3393,55.4781,76.68,69,0,4.61,RE,1644430969
367,Yārāda,17.65,83.2667,70.12,88,20,2.3,IN,1644431058
368,Asău,46.4333,26.4,34.72,89,56,6.11,RO,1644431058
369,Katesh,-4.5167,35.3833,63.09,77,84,0.43,TZ,1644431059
370,Vorotynets,56.0603,45.8633,23.49,99,100,0.49,RU,1644431059
371,Baoqing,46.3317,132.2111,-0.18,99,76,3.65,CN,1644431059
372,Fort Nelson,58.8053,-122.7002,4.59,85,100,11.5,CA,1644430986
373,Gornyye Klyuchi,45.25,133.5,2.86,97,89,2.53,RU,1644431060
374,Joshīmath,30.5667,79.5667,29.55,63,69,8.75,IN,1644431060
375,Guelph,43.5501,-80.2497,40.98,70,20,17.27,CA,1644430852
376,Katobu,-4.9408,122.5276,75.18,91,95,1.52,ID,1644431061
377,Arraial do Cabo,-22.9661,-42.0278,75.16,94,75,8.05,BR,1644431061
378,Galle,6.0367,80.217,78.08,77,51,5.19,LK,1644431062
379,Bloomington,44.8408,-93.2983,36.18,70,100,19.57,US,1644430923
380,Silvassa,20.2667,73.0167,68.4,57,16,3.4,IN,1644431062
381,Hearst,49.6835,-83.6665,26.85,91,100,4.27,CA,1644431062
382,Santo Amaro da Imperatriz,-27.6881,-48.7786,81.52,61,65,3.94,BR,1644431063
383,Pimenta Bueno,-11.6725,-61.1936,78.71,80,100,2.95,BR,1644431063
384,Mayo,38.8876,-76.5119,55.94,60,0,10.36,US,1644431064
385,Banda Aceh,5.5577,95.3222,77.81,81,99,4.54,ID,1644431064
386,Mitchell,43.7094,-98.0298,44.58,49,0,26.46,US,1644431064
387,Vryburg,-26.9566,24.7284,76.87,43,90,8.25,ZA,1644431065
388,Teknāf,20.8624,92.3058,63.63,59,4,9.69,BD,1644431065
389,Luba,3.4568,8.5547,82.29,78,29,8.08,GQ,1644431066
390,Bria,6.5423,21.9863,82.18,17,76,2.86,CF,1644431066
391,Camaná,-16.6228,-72.7111,74.82,65,14,9.04,PE,1644431066
392,Korla,41.7597,86.1469,26.65,46,100,2.89,CN,1644431067
393,Dunedin,-45.8742,170.5036,59.81,99,100,5.01,NZ,1644430994
394,Prince Rupert,54.3161,-130.3201,46.49,93,100,29.93,CA,1644430867
395,Yaan,7.3833,8.5667,89.69,10,65,5.12,NG,1644431067
396,Paraná,-31.732,-60.5238,92.57,27,9,4.52,AR,1644431068
397,Vânjuleţ,44.4411,22.7925,42.1,81,3,8.1,RO,1644431068
398,Plácido de Castro,-10.3353,-67.1856,90.07,49,81,3.98,BR,1644431068
399,Zhigalovo,54.8097,105.1578,-6.86,99,100,2.68,RU,1644431069
400,Khovd,48.0056,91.6419,-5.91,97,100,0.65,MN,1644431069
401,La Palma,33.8464,-118.0467,84.22,24,0,3.44,US,1644431069
402,Khor,47.8861,134.9464,-3.51,99,97,5.86,RU,1644431070
403,Pisco,-13.7,-76.2167,74.01,83,0,10.36,PE,1644431070
404,Semenivka,52.1783,32.5818,30.07,94,74,12.24,UA,1644431070
405,NEDJO,9.5046,35.5019,67.73,40,81,5.53,ET,1644431071
406,Marzuq,14.4,46.4667,63.39,41,0,0.11,YE,1644431071
407,Marawi,7.9986,124.2928,67.64,96,94,1.32,PH,1644431071
408,Miranda,3.2499,-76.2281,80.73,72,91,3.31,CO,1644431072
409,Tabou,4.423,-7.3528,81.59,78,77,8.12,CI,1644431072
410,Sakakah,29.9697,40.2064,69.37,40,67,11.77,SA,1644431072
411,San Quintín,30.4833,-115.95,66.87,34,98,3.31,MX,1644431073
412,Strezhevoy,60.7333,77.5889,-7.62,99,22,5.3,RU,1644431073
413,Chokwé,-24.5333,32.9833,81.99,58,0,11.03,MZ,1644431073
414,Kiama,-34.6833,150.8667,71.01,83,7,4.12,AU,1644430890
415,Port Keats,-14.25,129.55,79.34,85,75,3.02,AU,1644431074
416,Aizawl,23.7333,92.7167,42.51,71,1,2.59,IN,1644431074
417,Salto,-31.3833,-57.9667,87.96,43,20,8.01,UY,1644431075
418,Takāb,36.4009,47.1133,21.63,68,53,3.0,IR,1644431075
419,Greater Sudbury,46.49,-80.99,32.86,92,100,11.16,CA,1644431075
420,Olafsvik,64.8945,-23.7142,26.62,51,98,14.38,IS,1644430905
421,Kavieng,-2.5744,150.7967,80.73,81,64,6.82,PG,1644430957
422,Slavyanka,42.8633,131.3847,21.0,88,18,4.94,RU,1644431076
423,La Primavera,5.4906,-70.4092,86.86,58,83,3.8,CO,1644430990
424,Dubna,56.7333,37.1667,28.92,97,97,5.44,RU,1644431076
425,Terrace,54.5163,-128.6035,44.51,93,100,14.97,CA,1644431077
426,Hommelvik,63.4108,10.7942,35.56,75,75,25.32,NO,1644431077
427,Bariloche,-41.1456,-71.3082,73.24,33,75,18.41,AR,1644431077
428,Wuwei,37.9281,102.6414,21.45,70,70,3.49,CN,1644431078
429,Yankton,42.8711,-97.3973,43.12,49,0,24.16,US,1644430792
430,Gualeguay,-33.1416,-59.3097,87.21,24,2,7.4,AR,1644431078
431,Torbay,47.6666,-52.7314,39.38,89,75,24.16,CA,1644430850
432,Naze,28.3667,129.4833,58.73,85,96,9.71,JP,1644430964
433,Sandnessjøen,66.0217,12.6316,35.58,92,75,16.11,NO,1644431079
434,Mirabela,-16.2628,-44.1644,73.65,78,80,4.18,BR,1644431079
435,Valencia,39.3333,-0.8333,52.02,82,0,3.53,ES,1644430948
436,Boddam,57.4667,-1.7833,37.78,66,9,21.03,GB,1644431080
437,Jiazi,22.8779,116.067,60.03,82,100,8.43,CN,1644431080
438,Porangatu,-13.4408,-49.1486,79.03,79,99,5.32,BR,1644431054
439,Daru,-9.0763,143.2092,78.82,87,83,7.14,PG,1644431081
440,San Miguel de Tucumán,-26.8241,-65.2226,87.8,37,20,8.05,AR,1644431040
441,Grão Mogol,-16.5594,-42.8897,77.36,79,45,3.47,BR,1644431081
442,Otse,-25.0167,25.7333,72.77,36,81,1.07,BW,1644431082
443,Itoman,26.1247,127.6694,63.37,79,75,5.75,JP,1644431082
444,Dali,25.7,100.1833,38.75,72,2,4.83,CN,1644430927
445,Husavik,66.0449,-17.3389,24.71,71,100,16.87,IS,1644431082
446,Karligan,14.975,122.0456,77.47,82,63,11.59,PH,1644431083
447,Øksfjord,70.2396,22.3479,23.92,77,55,10.94,NO,1644431083
448,Peniche,39.3558,-9.3811,64.62,74,0,2.21,PT,1644431083
449,Oranjemund,-28.55,16.4333,65.91,80,2,15.21,NA,1644431084
450,Seymchan,62.8833,152.4333,-41.85,100,92,0.65,RU,1644431084
451,Saint Andrews,34.0454,-81.1293,58.3,36,0,10.36,US,1644431085
452,Samarinda,-0.5,117.15,73.36,100,100,2.53,ID,1644431085
453,Chippewa Falls,44.9369,-91.3929,36.18,75,100,14.97,US,1644430502
454,Merrill,45.1805,-89.6835,35.55,72,100,13.8,US,1644430854
455,Vilhena,-12.7406,-60.1458,79.02,73,75,9.22,BR,1644431086
456,Broome,42.2506,-75.833,44.17,55,46,12.66,US,1644431086
457,Port Blair,11.6667,92.75,78.84,78,20,5.75,IN,1644431022
458,Yenagoa,4.9247,6.2642,85.32,58,67,10.76,NG,1644430982
459,Pūrna,19.1833,77.05,72.64,42,10,5.26,IN,1644431087
460,Marang,5.2056,103.2059,80.51,83,100,2.89,MY,1644431087
461,Basco,20.4487,121.9702,75.02,83,92,13.89,PH,1644431087
462,Nador,35.174,-2.9287,57.45,77,40,5.75,MA,1644431088
463,Nastola,60.95,25.9333,32.2,93,100,8.97,FI,1644431088
464,Törökszentmiklós,47.1833,20.4167,45.14,76,0,4.61,HU,1644430986
465,Novoagansk,61.9449,76.6625,-13.52,95,89,5.44,RU,1644431089
466,Rawson,-43.3002,-65.1023,70.09,52,75,6.91,AR,1644430852
467,Kaeo,-35.1,173.7833,72.32,95,44,8.28,NZ,1644431089
468,Witham,51.8001,0.6404,53.49,87,85,6.29,GB,1644431090
469,Tual,-5.6667,132.75,82.63,78,99,15.95,ID,1644431090
470,Nchelenge,-9.3451,28.734,71.55,84,83,4.81,ZM,1644431090
471,Saint-Joseph,-21.3667,55.6167,75.58,80,99,8.28,RE,1644430966
472,Kampong Chhnang,12.1667,104.55,76.48,82,64,5.57,KH,1644431091
473,Matai,-8.3,31.5167,60.12,96,100,3.53,TZ,1644431091
474,Ol'ga,43.7444,135.2892,17.46,85,39,4.09,RU,1644431092
475,Bereda,43.2686,-7.5406,55.15,81,0,2.46,ES,1644431092
476,Nelson Bay,-32.7167,152.15,68.68,68,10,4.27,AU,1644430963
477,Constitución,-35.3333,-72.4167,70.81,63,13,11.61,CL,1644431092
478,Siuna,13.7332,-84.7773,88.25,38,23,7.83,NI,1644431093
479,Tigil',57.8,158.6667,-10.46,99,28,1.5,RU,1644431093
480,Ixtapa,20.7,-105.2,76.23,53,0,2.3,MX,1644430920
481,Kirakira,-10.4544,161.9205,79.11,88,97,10.33,SB,1644431093
482,Holsted,55.5109,8.9187,43.02,82,54,13.89,DK,1644431094
483,Shaowu,27.3409,117.4831,40.42,96,85,2.46,CN,1644431094
484,Longhua,23.6137,114.1919,51.91,90,100,2.66,CN,1644431094
485,Kieta,-6.2167,155.6333,79.32,84,91,3.24,PG,1644431095
486,Pak Phanang,8.3511,100.202,78.93,82,46,6.31,TH,1644431095
487,Qasigiannguit,68.8193,-51.1922,12.45,69,100,18.97,GL,1644431095
488,Pyapon,16.2833,95.6833,67.71,44,4,6.78,MM,1644430957
489,Dombóvár,46.3766,18.137,49.71,70,7,4.0,HU,1644431096
490,Kaitangata,-46.2817,169.8464,58.6,99,100,9.31,NZ,1644431096
491,Port-Gentil,-0.7193,8.7815,81.5,80,99,9.8,GA,1644431096
492,Sarakhs,36.5449,61.1577,46.54,61,1,2.3,IR,1644431097
493,Andilamena,-17.0167,48.5833,68.59,97,31,5.84,MG,1644431097
494,Vostok,46.4856,135.8833,-4.9,99,44,4.36,RU,1644431069
495,Bima,-8.4667,118.7167,77.36,92,100,2.28,ID,1644431097
496,Mahajanga,-15.7167,46.3167,78.82,89,40,5.75,MG,1644431098
497,Porto União,-26.2381,-51.0783,85.39,32,74,3.69,BR,1644431098
498,Grand Forks,47.9417,-97.4337,20.79,73,75,26.46,US,1644431099
499,Murindó,6.9848,-76.7544,81.55,81,97,3.42,CO,1644431099
500,Tiarei,-17.5333,-149.3333,84.0,77,31,17.92,PF,1644430886
501,Grafton,42.207,-71.6856,43.41,50,0,11.5,US,1644430786
502,Catalão,-18.1658,-47.9464,75.56,80,95,4.23,BR,1644431100
503,Tautira,-17.7333,-149.15,82.42,75,59,18.14,PF,1644431100
504,Paamiut,61.994,-49.6678,22.8,79,100,22.62,GL,1644431101
505,Ecuandureo,20.1667,-102.1833,74.23,27,0,3.56,MX,1644431101
506,Dickinson,29.4608,-95.0513,67.1,41,0,11.5,US,1644430904
507,Kawambwa,-9.7915,29.0791,64.24,94,93,1.97,ZM,1644431102
508,Yekaterinovka,52.0508,44.3451,28.76,97,100,9.46,RU,1644431102
509,Brewster,41.3973,-73.6171,46.4,51,0,8.05,US,1644431102
510,Pemba,-12.974,40.5178,79.5,89,75,8.05,MZ,1644431103
511,Iki-Burul,45.8208,44.6472,41.4,96,100,8.48,RU,1644431103
512,Tawang Town,27.5833,91.8667,27.99,96,100,0.49,IN,1644431103
513,Dutlwe,-23.9833,23.9,78.39,48,78,3.8,BW,1644431104
514,Biltine,14.5333,20.9167,74.05,8,0,8.5,TD,1644431104
515,Talcahuano,-36.7167,-73.1167,65.89,69,2,12.77,CL,1644431105
516,Hobyo,5.3505,48.5268,77.07,72,97,21.59,SO,1644431105
517,Scarborough,54.2797,-0.4044,44.53,73,89,3.0,GB,1644431106
518,Tarko-Sale,64.9225,77.785,-8.81,85,28,11.32,RU,1644431106
519,Amapá,1.0,-52.0,83.61,72,93,3.04,BR,1644431106
520,Avera,33.194,-82.5271,60.39,35,0,5.57,US,1644431107
521,Acaraú,-2.8856,-40.12,84.76,64,79,14.14,BR,1644431107
522,Kidodi,-7.6036,37.0044,73.58,93,75,2.3,TZ,1644431107
523,Manta,-0.95,-80.7333,82.18,74,75,5.75,EC,1644431108
524,Karratha,-20.7377,116.8463,85.28,65,53,4.41,AU,1644431014
525,La Romana,18.4273,-68.9728,86.36,58,75,10.36,DO,1644431108
526,Tocopilla,-22.092,-70.1979,71.13,66,12,5.57,CL,1644431109
527,Iralaya,15.0,-83.2333,86.09,61,28,12.53,HN,1644431109
528,Rome,43.2128,-75.4557,42.87,57,0,12.66,US,1644431110
529,Kristinestad,62.2743,21.376,32.52,91,100,9.17,FI,1644431110
530,Alofi,-19.0595,-169.9187,75.09,100,91,3.44,NU,1644431110
531,Brae,60.3964,-1.353,40.91,62,75,33.24,GB,1644430847
532,Tervel Municipality,43.75,27.4,41.58,71,41,4.27,BG,1644431111
533,Bāndarban,22.1965,92.2262,56.55,65,3,2.82,BD,1644431111
534,Mossendjo,-2.9506,12.7261,72.05,94,76,3.33,CG,1644431112
535,Innisfail,-17.5333,146.0333,71.47,85,6,4.03,AU,1644430995
536,Bilibino,68.0546,166.4372,-34.87,100,74,0.83,RU,1644431112
537,Boyolangu,-8.1181,111.8935,75.81,86,98,2.95,ID,1644431113
538,Tobane,-21.95,27.9,83.12,35,53,8.61,BW,1644431113
539,Soe,-9.8607,124.284,66.96,94,97,2.62,ID,1644431114
540,Tolmachëvo,54.9824,82.7363,-4.02,71,0,7.0,RU,1644431114
541,Menongue,-14.6585,17.691,63.1,94,99,4.79,AO,1644431114
542,Antequera,37.0194,-4.5612,53.1,78,0,6.06,ES,1644431115
543,Ust-Kuyga,70.0167,135.6,-34.1,97,93,9.57,RU,1644431115
544,Kudahuvadhoo,2.6708,72.8944,81.97,70,97,10.98,MV,1644431116
545,Kupang,-10.1667,123.5833,78.71,84,100,1.81,ID,1644430959
546,Wagar,16.1525,36.2032,83.93,26,49,9.48,SD,1644431116
547,Kalispell,48.1958,-114.3129,38.32,77,100,3.44,US,1644430930
548,Corn Island,12.1694,-83.0418,79.41,75,37,16.49,NI,1644431117
549,Xianyang,34.3378,108.7026,31.24,69,16,2.24,CN,1644431117
550,Moreira Sales,-24.0622,-53.0069,80.76,61,40,1.05,BR,1644431118
551,Sibolga,1.7427,98.7792,74.44,95,99,2.21,ID,1644431118
552,Porto-Novo,6.4965,2.6036,84.02,77,62,9.24,BJ,1644431118
553,La Ronge,55.1001,-105.2842,7.05,72,100,9.22,CA,1644430885
554,Krasnoarmeysk,51.0239,45.6969,29.07,98,100,12.06,RU,1644431119
555,Tongren,27.7172,109.1853,39.79,87,100,3.2,CN,1644431119
556,Baní,18.2833,-70.3333,83.75,63,18,14.58,DO,1644431120
557,Tela,15.7833,-87.45,76.95,88,75,11.5,HN,1644431120
558,Solnechnyy,50.7214,136.6319,-2.27,98,88,2.13,RU,1644431121
559,Hambantota,6.1241,81.1185,75.54,94,20,4.61,LK,1644431121
560,Miles City,46.4083,-105.8406,46.51,65,100,8.05,US,1644431121
561,Ahipara,-35.1667,173.1667,70.7,93,21,9.91,NZ,1644430955
562,Batagay-Alyta,67.8006,130.4114,-27.99,90,78,3.87,RU,1644431122
563,Finschhafen,-6.6024,147.8681,80.2,82,78,7.99,PG,1644431122
564,Shubarkuduk,49.1447,56.4872,13.05,95,96,8.93,KZ,1644431122
565,Lincoln,40.8,-96.667,52.02,45,20,23.02,US,1644431101
566,Polunochnoye,60.8697,60.4153,11.79,96,100,5.97,RU,1644431123
567,Ormara,25.2088,64.6357,71.1,67,0,3.91,PK,1644431123
568,Srednekolymsk,67.45,153.6833,-43.19,99,77,6.38,RU,1644431124
569,Lata,40.1629,-8.3327,58.82,60,0,1.59,PT,1644431124
570,Irtyshskiy,58.3333,68.1333,3.24,95,74,8.99,RU,1644431124
571,Charleston,32.7766,-79.9309,60.03,44,0,5.75,US,1644430676
572,Potosí,-19.5836,-65.7531,50.07,68,80,6.71,BO,1644431102
573,Chaoyang,41.5703,120.4586,18.93,72,10,3.62,CN,1644431125
574,Yumen,40.2833,97.2,24.33,40,100,13.15,CN,1644431126
575,Nouadhibou,20.931,-17.0347,89.58,11,10,4.61,MR,1644430891
576,Port Shepstone,-30.7414,30.455,77.32,85,53,11.56,ZA,1644431126
577,Lorengau,-2.0226,147.2712,80.94,81,47,4.32,PG,1644431126
578,Garden City,42.3256,-83.331,43.86,63,20,16.11,US,1644431127
579,Cefalù,38.0386,14.0229,54.54,64,0,3.0,IT,1644431127
580,Evensk,61.95,159.2333,-11.9,72,24,5.61,RU,1644431128
581,Sugal,5.6622,125.4617,79.25,69,100,7.87,PH,1644431128
582,Cartagena del Chairá,1.3349,-74.8429,88.68,50,94,0.87,CO,1644431128
583,Jumla,29.2747,82.1838,31.93,90,96,5.7,NP,1644431129
584,Inuvik,68.3499,-133.7218,-22.94,69,100,6.91,CA,1644431129
585,Baruun-Urt,46.6806,113.2792,-3.87,96,29,2.46,MN,1644431129
586,Nortelândia,-14.4547,-56.8028,73.26,97,100,0.56,BR,1644431130
587,Radinac,44.6267,20.967,50.14,75,91,1.95,RS,1644431130
588,Berlin,52.5244,13.4105,50.0,87,75,13.8,DE,1644431130
589,Grootfontein,-19.5667,18.1167,71.17,64,59,0.0,NA,1644431131
590,Sechura,-5.5569,-80.8222,81.82,51,100,9.57,PE,1644431131
591,Cockburn Town,21.4612,-71.1419,77.79,73,1,18.95,TC,1644431132
592,Karaton,-6.3424,106.1045,78.96,93,100,4.76,ID,1644431132
593,Tahe,52.3333,124.7333,-4.05,100,99,2.21,CN,1644430875
594,Onufriyivka,48.9072,33.4487,33.85,92,100,13.02,UA,1644431133
595,Kachīry,53.0675,76.1036,-12.5,98,7,5.79,KZ,1644431133
596,Koumac,-20.5667,164.2833,80.11,89,100,22.28,NC,1644431133
597,Fall River,41.7015,-71.1551,44.94,55,0,7.0,US,1644431134
598,Sirte,31.2089,16.5887,57.36,59,97,14.32,LY,1644431134
599,Dolinsk,47.35,142.8,-4.14,94,13,5.44,RU,1644431134
