,city,lat,lon,max temp,humidity,cloudiness,wind speed,country,date
0,Kruisfontein,-34.0033,24.7314,65.88,61,4,3.4,ZA,1644342972
1,Ushuaia,-54.8,-68.3,56.82,58,40,23.02,AR,1644342951
2,Kharp,66.8014,65.8081,-10.43,100,100,2.91,RU,1644342972
3,Pevek,69.7008,170.3133,-32.08,100,73,5.26,RU,1644342973
4,Saint-Pierre,-21.3393,55.4781,78.48,83,0,2.3,RE,1644342973
5,Álamos,27.0167,-108.9333,76.06,12,0,1.43,MX,1644342973
6,Qaanaaq,77.484,-69.3632,-11.04,94,100,4.99,GL,1644342974
7,Khatanga,71.9667,102.5,2.7,78,100,17.9,RU,1644342974
8,Rawson,-43.3002,-65.1023,69.64,56,96,19.89,AR,1644342975
9,Saskylakh,71.9167,114.0833,-1.46,87,100,12.84,RU,1644342975
10,Bor,56.3567,44.0669,31.93,98,100,9.08,RU,1644342975
11,Busselton,-33.65,115.3333,56.08,81,12,7.96,AU,1644342976
12,Mar del Plata,-38.0023,-57.5575,71.62,80,0,11.01,AR,1644342976
13,Atherton,53.5237,-2.4935,53.35,91,100,13.02,GB,1644342976
14,Mataura,-46.1927,168.8643,48.47,99,35,3.18,NZ,1644342977
15,Parrita,9.5201,-84.3225,98.26,57,16,7.09,CR,1644342977
16,Kavieng,-2.5744,150.7967,81.0,81,100,9.4,PG,1644342977
17,Rikitea,-23.1203,-134.9692,78.13,73,58,10.92,PF,1644342978
18,Tabas,33.5959,56.9244,50.79,31,23,2.39,IR,1644342978
19,East London,-33.0153,27.9116,77.94,83,0,9.22,ZA,1644342979
20,Geraldton,-28.7667,114.6,68.41,68,0,18.41,AU,1644342979
21,Vaini,-21.2,-175.2,75.36,100,75,5.75,TO,1644342979
22,Muros,42.7762,-9.0603,63.1,68,1,4.85,ES,1644342980
23,Banda Aceh,5.5577,95.3222,78.24,84,34,7.67,ID,1644342980
24,Belmonte,-15.8631,-38.8828,84.7,62,62,9.89,BR,1644342980
25,Ishigaki,24.3448,124.1572,67.23,77,100,21.27,JP,1644342981
26,De-Kastri,51.4667,140.7833,10.63,87,100,14.85,RU,1644342981
27,New Norfolk,-42.7826,147.0587,54.91,71,61,2.01,AU,1644342981
28,Husavik,66.0449,-17.3389,28.31,94,100,23.71,IS,1644342982
29,Jamestown,42.097,-79.2353,29.52,60,100,14.97,US,1644342763
30,Chopda,21.25,75.3,72.39,38,2,6.64,IN,1644342822
31,Koryazhma,61.3143,47.1691,19.96,92,97,8.99,RU,1644342982
32,Punta Arenas,-53.15,-70.9167,55.51,47,75,21.85,CL,1644342687
33,Adrar,20.5022,-10.0711,77.56,8,12,9.28,MR,1644342983
34,Port Alfred,-33.5906,26.891,74.73,87,1,3.11,ZA,1644342983
35,Chui,-33.6971,-53.4616,74.88,48,69,10.25,UY,1644342984
36,Saint-Philippe,-21.3585,55.7679,78.39,85,68,9.35,RE,1644342984
37,Albany,42.6001,-73.9662,37.02,74,88,11.01,US,1644342812
38,Kapaa,22.0752,-159.319,73.18,77,28,9.57,US,1644342985
39,Glória do Goitá,-8.0017,-35.2928,84.34,43,5,16.73,BR,1644342985
40,Filingué,14.3521,3.3168,82.26,10,1,8.43,NE,1644342985
41,Auki,-8.7676,160.7034,78.91,87,99,8.86,SB,1644342986
42,Vila Velha,-20.3297,-40.2925,89.55,69,40,16.11,BR,1644342986
43,Mandalgovi,45.7625,106.2708,6.19,56,12,6.82,MN,1644342987
44,Seddon,-37.8068,144.8916,74.61,60,75,13.8,AU,1644342987
45,Coquimbo,-29.9533,-71.3436,67.73,72,75,11.5,CL,1644342988
46,Sabang,5.8933,95.3214,81.97,77,72,13.47,ID,1644342988
47,Grindavik,63.8424,-22.4338,32.47,80,75,6.91,IS,1644342988
48,Shizunai-furukawachō,42.3339,142.3669,23.83,75,53,10.22,JP,1644342989
49,Sal Rei,16.1833,-22.9167,75.4,69,20,17.27,CV,1644342989
50,San Patricio,28.017,-97.5169,65.17,34,0,3.98,US,1644342990
51,Upernavik,72.7868,-56.1549,-15.79,90,100,6.33,GL,1644342990
52,Saldanha,-33.0117,17.9442,73.45,92,43,11.65,ZA,1644342990
53,São Filipe,14.8961,-24.4956,73.49,71,2,6.46,CV,1644342991
54,Pangai,-19.8,-174.35,78.96,85,100,23.33,TO,1644342991
55,Havelock,34.8791,-76.9013,46.94,85,100,10.36,US,1644342991
56,Half Moon Bay,37.4636,-122.4286,65.62,73,0,1.01,US,1644342992
57,Cidreira,-30.1811,-50.2056,75.97,64,21,14.41,BR,1644342992
58,Saint Paul Harbor,57.79,-152.4072,27.99,83,61,5.59,US,1644342992
59,Coyhaique,-45.5752,-72.0662,66.81,34,40,9.22,CL,1644342993
60,Riyadh,24.6877,46.7219,60.94,27,0,7.34,SA,1644342732
61,Hervey Bay,-25.2986,152.8535,67.01,87,12,8.99,AU,1644342710
62,Zhoucheng,35.9122,116.3117,41.02,57,100,5.93,CN,1644342993
63,Hofn,64.2539,-15.2082,32.41,76,100,19.53,IS,1644342994
64,Paris,48.8534,2.3488,51.12,85,100,8.05,FR,1644342523
65,Natal,-5.795,-35.2094,88.45,55,40,14.97,BR,1644342712
66,Castro,-24.7911,-50.0119,75.72,67,75,4.05,BR,1644342995
67,Qasigiannguit,68.8193,-51.1922,-16.94,80,73,8.68,GL,1644342995
68,Barrow,71.2906,-156.7887,-30.98,100,75,6.91,US,1644342995
69,Kutum,14.2,24.6667,64.26,12,8,6.87,SD,1644342996
70,Butaritari,3.0707,172.7902,81.39,77,37,13.44,KI,1644342996
71,Raudeberg,61.9875,5.1352,40.19,88,100,11.01,NO,1644342996
72,Posadas,-27.3671,-55.8961,87.78,30,0,9.22,AR,1644342997
73,Cockburn Town,21.4612,-71.1419,78.76,73,40,11.5,TC,1644342997
74,Lavrentiya,65.5833,-171.0,-25.31,97,36,13.42,RU,1644342998
75,Cape Town,-33.9258,18.4232,73.27,65,0,12.66,ZA,1644342969
76,Krutinka,56.0055,71.5113,-2.09,100,99,4.88,RU,1644342998
77,Erzin,36.9559,36.2,50.52,84,100,7.38,TR,1644342999
78,Kaitangata,-46.2817,169.8464,52.84,96,33,5.28,NZ,1644342999
79,Tocopilla,-22.092,-70.1979,73.15,66,8,8.19,CL,1644342999
80,Oktyabr'skoye,43.0645,44.7417,30.34,86,100,4.47,RU,1644343000
81,Torbay,47.6666,-52.7314,32.29,79,75,10.36,CA,1644343000
82,Puerto Ayora,-0.7393,-90.3518,80.56,70,32,9.78,EC,1644343000
83,Vestmanna,62.1564,-7.1664,34.72,64,75,25.32,FO,1644343001
84,Maunabo,18.0072,-65.8993,82.47,73,57,16.44,PR,1644343001
85,Mīāndoāb,36.9694,46.1027,34.18,82,6,5.32,IR,1644343001
86,Pinar del Río,22.4175,-83.6981,83.48,47,0,9.37,CU,1644343002
87,Broken Hill,-31.95,141.4333,69.51,73,67,5.75,AU,1644343002
88,Constitución,-35.3333,-72.4167,74.43,53,9,18.34,CL,1644343003
89,Rio Grande,-32.035,-52.0986,80.71,58,73,14.14,BR,1644343003
90,Hirara,24.8,125.2833,66.85,75,100,20.42,JP,1644343003
91,Hilo,19.7297,-155.09,68.25,80,0,6.91,US,1644342689
92,Ledyard Center,41.4398,-72.0142,44.65,79,89,4.0,US,1644343004
93,Houston,29.7633,-95.3633,64.02,32,0,4.61,US,1644342663
94,Tūndla,27.2,78.2833,60.46,66,14,6.69,IN,1644343004
95,Hithadhoo,-0.6,73.0833,83.01,69,100,14.45,MV,1644343005
96,Gua Musang,4.8823,101.9644,72.12,99,100,1.57,MY,1644343005
97,Troitskoye,52.9821,84.6757,8.69,97,96,5.57,RU,1644343005
98,Dingle,10.9995,122.6711,75.06,90,72,9.48,PH,1644343006
99,Belaya Gora,68.5333,146.4167,-49.36,100,90,3.6,RU,1644343006
100,Sangar,63.9242,127.4739,-39.39,100,91,1.36,RU,1644343007
101,Puerto Peñasco,31.3167,-113.5333,66.9,22,0,5.01,MX,1644343007
102,Bredasdorp,-34.5322,20.0403,72.72,64,34,10.36,ZA,1644343007
103,Plácido de Castro,-10.3353,-67.1856,83.28,63,100,2.44,BR,1644343008
104,Halifax,44.6453,-63.5724,44.53,98,100,21.85,CA,1644342892
105,Ponta do Sol,32.6667,-17.1,72.12,37,24,8.21,PT,1644343008
106,Longyearbyen,78.2186,15.6401,17.44,67,75,8.05,SJ,1644343009
107,Hermanus,-34.4187,19.2345,69.91,89,29,7.49,ZA,1644343009
108,Thompson,55.7435,-97.8558,19.56,86,100,8.05,CA,1644343009
109,São João da Barra,-21.6403,-41.0511,82.49,82,89,8.95,BR,1644342769
110,Iqaluit,63.7506,-68.5145,-0.31,77,100,8.05,CA,1644343010
111,Bosaso,11.2842,49.1816,75.88,69,86,8.14,SO,1644343010
112,Lokoja,7.8024,6.743,89.51,14,45,4.63,NG,1644343010
113,Havre-St-Pierre,50.2334,-63.5986,19.4,86,100,17.27,CA,1644343011
114,Luanda,-8.8368,13.2343,80.6,69,20,11.5,AO,1644343011
115,Severo-Kuril'sk,50.6789,156.125,30.87,93,100,24.16,RU,1644343011
116,Lata,40.1629,-8.3327,66.61,52,0,4.81,PT,1644343012
117,Gombong,-7.6072,109.5142,75.83,84,100,3.13,ID,1644343012
118,Saint George,37.1041,-113.5841,59.34,25,4,2.17,US,1644343013
119,Tasiilaq,65.6145,-37.6368,14.22,83,100,9.4,GL,1644343013
120,Bethel,41.3712,-73.414,44.92,81,51,1.99,US,1644343013
121,Nuuk,64.1835,-51.7216,-1.25,75,95,10.92,GL,1644343014
122,Magnor,59.9511,12.1996,40.73,70,2,8.81,SE,1644343014
123,Seoul,37.5683,126.9778,26.04,84,0,3.44,KR,1644342528
124,Los Llanos de Aridane,28.6585,-17.9182,69.55,75,0,17.27,ES,1644343015
125,Esperance,-33.8667,121.9,57.04,68,50,4.54,AU,1644343015
126,Dongsheng,39.8161,109.9776,18.55,71,82,8.1,CN,1644343015
127,Yar-Sale,66.8333,70.8333,0.57,89,100,15.73,RU,1644343016
128,Atuona,-9.8,-139.0333,78.08,78,9,18.45,PF,1644343016
129,Isangel,-19.55,169.2667,80.13,92,100,25.19,VU,1644343017
130,Okha,53.5739,142.9478,15.71,94,100,18.52,RU,1644343017
131,Katsuura,35.1333,140.3,42.91,88,81,11.25,JP,1644343017
132,Port Elizabeth,-33.918,25.5701,68.09,88,0,5.75,ZA,1644343018
133,Vardø,70.3705,31.1107,30.18,69,75,25.32,NO,1644343018
134,Mossamedes,-15.1961,12.1522,74.39,76,91,10.22,AO,1644343018
135,Hope,33.6671,-93.5916,58.98,36,0,9.42,US,1644342931
136,Saint-François,46.4154,3.9054,44.04,69,0,5.75,FR,1644343019
137,George Town,5.4112,100.3354,79.95,91,20,0.0,MY,1644342777
138,Camacupa,-12.0167,17.4833,62.35,93,98,1.97,AO,1644343019
139,Lompoc,34.6391,-120.4579,77.13,46,22,2.71,US,1644343020
140,Cravo Norte,6.3017,-70.2041,87.19,56,98,7.31,CO,1644343020
141,Fare,-16.7,-151.0167,81.57,77,93,19.69,PF,1644343021
142,Ballina,-28.8667,153.5667,62.78,94,100,0.0,AU,1644343021
143,Nara,34.6851,135.8049,37.98,62,72,1.88,JP,1644343021
144,Berlevåg,70.8578,29.0864,26.6,74,40,8.05,NO,1644343022
145,Cabo San Lucas,22.8909,-109.9124,78.62,57,0,5.01,MX,1644342876
146,Dicabisagan,17.0818,122.4157,74.75,83,64,3.71,PH,1644343022
147,Kumul,42.8,93.45,25.43,40,11,3.22,CN,1644343023
148,Mnogovershinnyy,53.9353,139.9242,4.8,94,100,6.58,RU,1644343023
149,Bulgan,48.8125,103.5347,0.12,85,85,3.27,MN,1644343023
150,Bluff,-46.6,168.3333,48.79,91,49,12.01,NZ,1644343024
151,Pisco,-13.7,-76.2167,73.02,73,0,9.22,PE,1644343024
152,Ybycuí,-26.0167,-57.05,91.58,21,0,6.85,PY,1644343025
153,Cherskiy,68.75,161.3,-41.15,100,87,4.45,RU,1644343025
154,Poltavka,54.3663,71.7632,-0.27,99,98,4.09,RU,1644343025
155,Laas,46.6166,10.7002,38.35,66,4,6.67,IT,1644343026
156,Cayenne,4.9333,-52.3333,83.08,79,75,6.91,GF,1644343026
157,Pacifica,37.6138,-122.4869,65.37,74,0,7.0,US,1644343027
158,Flinders,-34.5833,150.8552,63.21,86,5,5.99,AU,1644343027
159,Kamenka,51.3223,42.7678,33.75,98,100,12.12,RU,1644343027
160,Sisimiut,66.9395,-53.6735,-3.57,79,100,18.84,GL,1644343028
161,Hobart,-42.8794,147.3294,55.27,85,51,5.75,AU,1644343028
162,Inta,66.0317,60.1659,-6.41,90,88,3.62,RU,1644343029
163,Tarrafal,15.2833,-23.7667,79.59,76,1,13.53,CV,1644343029
164,Arraial do Cabo,-22.9661,-42.0278,73.36,100,75,10.36,BR,1644343029
165,Malanje,-9.5402,16.341,64.38,90,78,4.94,AO,1644343030
166,Mastic Beach,40.7668,-72.8521,48.02,74,71,8.01,US,1644343030
167,Tuktoyaktuk,69.4541,-133.0374,-43.6,66,20,5.75,CA,1644343030
168,Poum,-20.2333,164.0167,81.84,84,100,25.48,NC,1644343031
169,Sharjah city,25.3573,55.4033,70.09,54,40,9.22,AE,1644343031
170,Amapá,1.0,-52.0,81.39,79,79,3.78,BR,1644343032
171,Kaeo,-35.1,173.7833,74.32,98,84,7.99,NZ,1644343032
172,Kribi,2.95,9.9167,81.21,78,30,10.49,CM,1644343032
173,Heishan,41.6892,122.1128,23.92,61,3,6.29,CN,1644343033
174,Tagusao,9.1924,117.8141,78.26,82,92,5.17,PH,1644343033
175,Tabuk,17.4189,121.4443,70.09,94,73,1.9,PH,1644343034
176,Mahébourg,-20.4081,57.7,77.29,83,40,3.44,MU,1644343034
177,Nizwá,22.9333,57.5333,65.17,33,0,3.96,OM,1644343034
178,Clyde River,70.4692,-68.5914,-27.17,68,75,5.75,CA,1644343035
179,Avarua,-21.2078,-159.775,77.05,88,40,5.75,CK,1644343035
180,Yenagoa,4.9247,6.2642,84.85,60,25,11.1,NG,1644343036
181,Valdivia,-39.8142,-73.2459,78.89,45,65,4.41,CL,1644342831
182,Ilulissat,69.2167,-51.1,-16.55,95,89,8.01,GL,1644343036
183,Yellowknife,62.456,-114.3525,-16.58,84,75,4.61,CA,1644343036
184,Norman Wells,65.282,-126.8329,-29.16,68,75,4.61,CA,1644342938
185,Tamiahua,21.2667,-97.45,60.17,61,90,10.83,MX,1644343037
186,Noumea,-22.2763,166.4572,82.0,99,100,16.04,NC,1644343037
187,Conceição do Araguaia,-8.2578,-49.2647,91.24,52,38,2.86,BR,1644343038
188,Rosetta,31.4044,30.4164,64.22,49,35,10.04,EG,1644343038
189,Tiksi,71.6872,128.8694,-22.63,99,57,7.52,RU,1644343038
190,Nikolskoye,59.7035,30.7861,30.09,96,100,4.9,RU,1644343039
191,Comodoro Rivadavia,-45.8667,-67.5,71.46,26,0,12.66,AR,1644342799
192,Praia da Vitória,38.7333,-27.0667,62.76,77,75,9.42,PT,1644343039
193,Voi,-3.3945,38.563,79.27,47,22,4.99,KE,1644343040
194,Hualmay,-11.0964,-77.6139,75.38,68,22,8.86,PE,1644343040
195,Hambantota,6.1241,81.1185,77.9,65,100,13.4,LK,1644343040
196,Spornoye,50.8448,37.2913,32.02,99,100,7.4,RU,1644343041
197,Ribeira Grande,38.5167,-28.7,61.2,72,40,6.91,PT,1644343041
198,Benghazi,32.1167,20.0667,55.62,49,82,25.08,LY,1644343041
199,Hīt,33.6416,42.8251,57.42,46,61,9.91,IQ,1644343042
200,Mackay,-21.15,149.2,69.78,94,3,3.44,AU,1644343042
201,Airai,-8.9266,125.4092,61.02,96,100,1.59,TL,1644343042
202,Māngrol,21.1167,70.1167,69.04,75,1,11.21,IN,1644343043
203,Bubaque,11.2833,-15.8333,78.6,71,8,13.85,GW,1644343043
204,Kiryat Gat,31.61,34.7642,59.4,100,1,3.4,IL,1644343043
205,Copiapó,-27.3667,-70.3333,73.09,26,0,10.36,CL,1644343044
206,Lagos,6.5833,3.75,88.12,77,53,7.72,NG,1644343044
207,Mahajanga,-15.7167,46.3167,78.82,89,40,2.3,MG,1644343044
208,Te Anau,-45.4167,167.7167,55.02,89,45,0.56,NZ,1644343045
209,Hasaki,35.7333,140.8333,34.2,65,99,14.14,JP,1644343045
210,Novobiryusinskiy,56.9578,97.7076,-5.66,94,100,6.24,RU,1644343045
211,Cadillac,44.2519,-85.4012,31.96,69,40,9.22,US,1644343046
212,Palmer,42.1584,-72.3287,43.32,78,75,10.36,US,1644343046
213,Bilma,18.6853,12.9164,70.88,9,0,6.26,NE,1644343046
214,Maningrida,-12.0667,134.2667,78.93,83,95,1.92,AU,1644343047
215,Cabra,37.4725,-4.4421,64.18,50,0,4.29,ES,1644343047
216,Manzhouli,49.6,117.4333,1.98,99,56,7.31,CN,1644343048
217,Antalaha,-14.9003,50.2788,77.0,90,84,5.19,MG,1644343048
218,Nānākuli,21.3906,-158.1547,74.71,72,1,8.72,US,1644343048
219,Winsum,53.33,6.5208,49.21,90,93,16.62,NL,1644343049
220,Viedma,-40.8135,-62.9967,91.02,20,93,9.64,AR,1644343049
221,São José da Coroa Grande,-8.8978,-35.1478,84.36,61,7,10.87,BR,1644343049
222,Talgar,43.3027,77.2395,24.96,93,100,4.47,KZ,1644343050
223,San Juan,-31.5375,-68.5364,91.6,21,0,6.13,AR,1644343034
224,Kunhegyes,47.3667,20.6333,44.58,67,81,12.71,HU,1644343050
225,Nome,64.5011,-165.4064,-10.39,95,100,8.95,US,1644343050
226,Carnarvon,-24.8667,113.6333,75.27,73,0,16.11,AU,1644343051
227,Launceston,-41.45,147.1667,56.16,86,88,0.0,AU,1644343051
228,Jardim,-21.4803,-56.1381,92.89,14,0,8.1,BR,1644343052
229,Makakilo City,21.3469,-158.0858,73.29,71,1,9.95,US,1644343052
230,Aksarka,66.5606,67.7975,-5.22,100,100,10.0,RU,1644343053
231,Vao,-22.6667,167.4833,80.42,87,94,23.78,NC,1644343053
232,Chokurdakh,70.6333,147.9167,-44.05,100,95,5.37,RU,1644343053
233,Araceli,10.5529,119.9913,80.35,83,47,16.89,PH,1644343054
234,Kati,12.7441,-8.0726,92.61,7,90,4.54,ML,1644343054
235,Clonakilty,51.6231,-8.8706,51.1,92,98,19.64,IE,1644343054
236,Marathon,44.9,-89.7668,32.56,65,40,5.75,US,1644343055
237,Mulegé,26.8833,-111.9833,69.89,31,0,12.64,MX,1644343055
238,Kardailovo,51.5386,53.9042,2.37,100,99,3.94,RU,1644343055
239,Kuju,23.7167,85.5,63.34,46,2,1.05,IN,1644343056
240,Sokolo,14.7328,-6.1219,85.35,8,0,9.44,ML,1644343056
241,Tegul'det,57.3064,88.1667,-8.75,99,43,4.76,RU,1644343057
242,Kahului,20.8947,-156.47,74.84,82,3,1.01,US,1644343057
243,Mount Darwin,-16.7725,31.5838,68.02,91,19,2.89,ZW,1644343057
244,Narón,43.5167,-8.1528,59.85,79,6,0.38,ES,1644343058
245,Touros,-5.1989,-35.4608,88.7,55,15,15.75,BR,1644343058
246,Padang,-0.9492,100.3543,75.25,82,99,4.41,ID,1644343059
247,Codrington,-38.2667,141.9667,67.5,66,99,5.19,AU,1644343059
248,Swellendam,-34.0226,20.4417,71.98,59,40,7.43,ZA,1644343059
249,Hamilton,39.1834,-84.5333,39.99,60,55,5.99,US,1644343060
250,Mosquera,4.7059,-74.2302,53.69,94,100,4.61,CO,1644343060
251,Deputatsky,69.3,139.9,-36.99,98,87,5.01,RU,1644343060
252,Mlonggo,-6.5333,110.7,80.49,87,100,7.85,ID,1644343061
253,Lorengau,-2.0226,147.2712,80.96,82,100,8.88,PG,1644343061
254,Ust-Tsilma,65.441,52.1498,9.68,94,98,8.19,RU,1644343062
255,Fraga,41.5229,0.3489,54.43,63,2,2.89,ES,1644343062
256,Vatne,62.5667,6.65,37.0,86,100,23.22,NO,1644343062
257,Faya,18.3851,42.4509,57.31,73,18,3.31,SA,1644343063
258,Dikson,73.5069,80.5464,4.95,93,100,22.28,RU,1644343063
259,Serebryansk,49.6925,83.2892,9.95,94,100,2.06,KZ,1644343063
260,Bengkulu,-3.8004,102.2655,75.92,86,98,5.35,ID,1644343064
261,San Agustín Acasaguastlán,14.95,-89.9667,73.71,85,92,3.76,GT,1644343064
262,North Bend,43.4065,-124.2243,49.86,100,3,5.14,US,1644342780
