city_number,city,lat,lon,temp,humidity,cloudiness,wind_speed,country,date
0,albany,42.6001,-73.9662,12.78,84,100,1.01,US,1644028220
1,georgetown,5.4112,100.3354,80.24,83,20,5.01,MY,1644028285
2,ushuaia,-54.8,-68.3,47.86,71,0,6.91,AR,1644028027
3,deputatskiy,69.3,139.9,-26.36,99,75,2.77,RU,1644028286
4,severo-kurilsk,50.6789,156.125,31.28,87,92,8.84,RU,1644028083
5,neuquen,-38.9516,-68.0591,62.49,77,75,11.5,AR,1644028286
6,avarua,-21.2078,-159.775,82.45,74,20,14.97,CK,1644028286
7,luderitz,-26.6481,15.1594,67.84,73,86,4.43,NA,1644028109
8,codrington,-38.2667,141.9667,71.47,53,98,19.3,AU,1644028287
