,city,lat,lon,max temp,humidity,cloudiness,wind speed,country,date
0,Severo-Kuril'sk,50.6789,156.125,28.17,86,100,5.91,RU,1644096582
1,Tuatapere,-46.1333,167.6833,53.82,82,99,3.8,NZ,1644096583
2,Busselton,-33.65,115.3333,65.05,89,20,6.62,AU,1644096582
3,Vila Velha,-20.3297,-40.2925,78.75,85,40,7.0,BR,1644096308
4,Keti Bandar,24.1447,67.4497,69.94,61,0,9.08,PK,1644096583
5,Alice Springs,-23.7,133.8833,56.75,88,0,0.0,AU,1644096584
6,Ushuaia,-54.8,-68.3,55.06,71,40,23.02,AR,1644096269
7,Nelson Bay,-32.7167,152.15,73.0,63,93,4.0,AU,1644096584
