,city,lat,lon,max temp,humidity,cloudiness,wind speed,country,date
0,Pascagoula,30.3658,-88.5561,63.05,27,0,6.91,US,1644359689
1,Punta Arenas,-53.15,-70.9167,57.31,41,75,13.8,CL,1644359689
2,Ahipara,-35.1667,173.1667,79.93,72,69,10.65,NZ,1644359690
3,Pangnirtung,66.1451,-65.7125,-7.6,77,100,9.22,CA,1644359651
4,Haines Junction,60.7522,-137.5108,39.15,60,79,9.22,CA,1644359690
5,Sangar,63.9242,127.4739,-41.01,100,98,1.48,RU,1644359691
6,Ushuaia,-54.8,-68.3,53.26,54,40,16.11,AR,1644359691
7,Springbok,-29.6643,17.8865,71.8,30,0,4.05,ZA,1644359692
8,Albany,42.6001,-73.9662,34.84,70,41,3.0,US,1644359410
9,Necochea,-38.5473,-58.7368,66.58,68,61,11.59,AR,1644359407
10,Mataura,-46.1927,168.8643,60.48,73,100,4.07,NZ,1644359455
11,Bredasdorp,-34.5322,20.0403,63.72,82,30,6.91,ZA,1644359692
12,Hermanus,-34.4187,19.2345,64.9,86,65,7.18,ZA,1644359693
13,Busselton,-33.65,115.3333,52.05,76,3,6.11,AU,1644359693
14,Carnarvon,-24.8667,113.6333,73.47,73,0,10.36,AU,1644359501
15,Moshi,-3.35,37.3333,67.37,63,40,3.2,TZ,1644359694
16,George Town,5.4112,100.3354,78.89,92,20,2.3,MY,1644359435
17,Cidreira,-30.1811,-50.2056,71.47,73,37,11.56,BR,1644359694
18,Ternate,0.8,127.4,79.59,82,100,4.88,ID,1644359576
19,Inírida,3.8653,-67.9239,75.65,90,100,2.21,CO,1644359695
20,Vaini,-21.2,-175.2,84.36,89,40,13.8,TO,1644359695
21,Hilo,19.7297,-155.09,78.24,73,100,8.01,US,1644359428
22,Atuona,-9.8,-139.0333,78.62,77,17,15.52,PF,1644359696
23,Ribeira Grande,38.5167,-28.7,60.35,70,93,5.95,PT,1644359696
24,Casablanca,33.5928,-7.6192,62.33,77,0,4.0,MA,1644359605
25,Kudahuvadhoo,2.6708,72.8944,82.29,65,100,11.74,MV,1644359697
26,Puerto Ayora,-0.7393,-90.3518,78.76,75,56,9.28,EC,1644359458
27,Avarua,-21.2078,-159.775,78.85,89,75,11.5,CK,1644359697
28,Ilulissat,69.2167,-51.1,-7.58,64,35,26.46,GL,1644359697
29,Vestmannaeyjar,63.4427,-20.2734,34.45,76,100,7.94,IS,1644359698
30,Rikitea,-23.1203,-134.9692,78.98,70,75,12.64,PF,1644359698
31,Lorengau,-2.0226,147.2712,83.26,79,97,9.51,PG,1644359609
32,Amapá,1.0,-52.0,72.14,98,93,2.59,BR,1644359699
33,Yermakovskoye,53.2831,92.4003,-7.67,100,99,2.53,RU,1644359699
34,Agirish,61.9247,63.0231,1.42,98,94,6.2,RU,1644359577
35,Dali,25.7,100.1833,35.47,77,9,3.53,CN,1644359700
36,Saskylakh,71.9167,114.0833,2.62,84,100,14.5,RU,1644359697
37,Miyako,39.6367,141.9525,30.56,60,14,5.14,JP,1644359700
38,Kapaa,22.0752,-159.319,79.12,65,40,10.36,US,1644359700
39,Ostrovnoy,68.0531,39.5131,13.87,88,48,18.39,RU,1644359701
40,Makaha,21.4694,-158.2175,80.51,57,40,6.91,US,1644359701
41,Paamiut,61.994,-49.6678,-0.8,80,100,12.19,GL,1644359702
42,Kruisfontein,-34.0033,24.7314,66.25,61,58,7.83,ZA,1644359497
43,Severo-Kuril'sk,50.6789,156.125,30.78,93,96,25.68,RU,1644359702
44,Butaritari,3.0707,172.7902,82.0,77,71,13.85,KI,1644359413
45,Churapcha,62.0025,132.4325,-27.98,100,100,1.68,RU,1644359703
46,Codrington,-38.2667,141.9667,69.48,69,92,8.7,AU,1644359703
47,Caracolí,6.4119,-74.7606,71.73,96,97,1.72,CO,1644359704
48,Norman Wells,65.282,-126.8329,-27.36,62,75,3.44,CA,1644359704
49,Bluff,-46.6,168.3333,60.8,80,95,9.08,NZ,1644359705
50,Bānda,25.4833,80.3333,57.49,68,2,7.29,IN,1644359705
51,Hong Kong,22.2855,114.1577,61.32,83,100,10.0,HK,1644359408
52,Senno,59.5336,33.9167,16.9,99,100,3.6,RU,1644359705
53,Port Alfred,-33.5906,26.891,70.97,88,6,9.22,ZA,1644359706
54,Margate,51.3813,1.3862,49.96,78,96,5.01,GB,1644359686
55,Aripuanã,-9.1667,-60.6333,72.18,99,99,0.63,BR,1644359707
56,Beli Manastir,45.77,18.6036,43.56,71,78,6.64,HR,1644359707
57,Miranda,3.2499,-76.2281,68.13,93,91,2.91,CO,1644359435
58,Tabou,4.423,-7.3528,79.03,86,3,8.9,CI,1644359707
59,Dunedin,-45.8742,170.5036,58.8,87,100,4.0,NZ,1644359708
60,Hobart,-42.8794,147.3294,68.02,69,20,9.22,AU,1644359708
61,Kahului,20.8947,-156.47,83.46,57,40,13.8,US,1644359708
62,Qaanaaq,77.484,-69.3632,-14.58,92,100,5.57,GL,1644359709
63,Yellowknife,62.456,-114.3525,-10.71,76,75,4.61,CA,1644359514
64,Sitka,57.0531,-135.33,44.49,87,100,17.27,US,1644359476
65,Ust'-Kan,50.9276,84.761,1.74,99,99,2.08,RU,1644359710
66,East London,-33.0153,27.9116,73.99,87,4,4.5,ZA,1644359702
67,Eureka,40.8021,-124.1637,64.13,71,0,1.99,US,1644359710
68,Bethel,41.3712,-73.414,37.02,71,53,5.01,US,1644359488
69,Ambilobe,-13.2,49.05,74.41,94,92,3.18,MG,1644359711
70,Orlik,52.5178,99.825,-8.72,99,95,0.85,RU,1644359711
71,Columbia,34.0007,-81.0348,51.44,59,0,0.0,US,1644359468
72,Geraldton,-28.7667,114.6,61.21,88,0,9.22,AU,1644359505
73,General Roca,-39.0333,-67.5833,93.6,11,37,4.23,AR,1644359712
74,Kiryat Gat,31.61,34.7642,54.39,48,53,7.14,IL,1644359712
75,San Cristobal,7.7669,-72.225,77.18,81,84,2.75,VE,1644359712
76,Razdolnaya,45.3799,39.5557,38.98,90,100,7.2,RU,1644359713
77,Acapulco de Juárez,16.8634,-99.8901,84.02,65,40,8.05,MX,1644359636
78,Ochamchira,42.7121,41.4721,49.42,75,100,9.53,GE,1644359713
79,Iqaluit,63.7506,-68.5145,-0.31,84,100,13.8,CA,1644359389
80,Socastee,33.6835,-78.9984,51.84,69,0,6.91,US,1644359714
81,El Porvenir,13.7617,-87.3458,90.5,21,46,2.62,HN,1644359714
82,Thaton,16.9206,97.3714,63.9,62,69,3.27,MM,1644359715
83,Barrow,71.2906,-156.7887,-29.18,99,20,8.05,US,1644359591
84,Cape Town,-33.9258,18.4232,67.08,81,0,3.44,ZA,1644359716
85,San Patricio,28.017,-97.5169,71.69,27,0,1.77,US,1644359419
86,Mujiayingzi,42.1167,118.7833,17.8,42,60,7.0,CN,1644359716
87,Labuhan,-6.8844,112.2051,77.29,87,100,5.91,ID,1644359620
88,Bonavista,48.6499,-53.1147,30.11,79,100,19.3,CA,1644359473
89,Tasiilaq,65.6145,-37.6368,19.56,81,99,9.24,GL,1644359460
90,Coventry,52.4066,-1.5122,50.67,86,0,13.8,GB,1644359522
91,Yalutorovsk,56.6536,66.3006,11.14,92,38,7.74,RU,1644359717
92,Kavieng,-2.5744,150.7967,82.69,78,100,9.28,PG,1644359536
93,Bengkulu,-3.8004,102.2655,76.51,84,100,5.77,ID,1644359717
94,Belmonte,-15.8631,-38.8828,81.1,85,6,7.56,BR,1644359718
95,Haimen,23.1935,116.6142,55.29,80,99,16.22,CN,1644359718
96,Veseloyarsk,51.2836,81.1056,6.57,98,98,2.53,RU,1644359718
97,Weligama,5.9667,80.4167,76.14,78,99,2.71,LK,1644359719
98,Kununurra,-15.7667,128.7333,78.78,78,100,3.44,AU,1644359719
99,Patiya,22.2931,91.9762,54.34,74,8,5.61,BD,1644359720
100,Garoowe,8.4054,48.4845,65.01,79,43,12.77,SO,1644359574
101,Jasper,37.2001,-94.3502,60.85,27,20,16.11,US,1644359519
102,Moengo,5.6167,-54.4,73.8,91,62,3.18,SR,1644359720
103,Udachny,66.4167,112.4,-24.21,99,87,3.8,RU,1644359721
104,Arraial do Cabo,-22.9661,-42.0278,71.46,94,75,6.91,BR,1644359721
105,Port Elizabeth,-33.918,25.5701,64.69,94,75,11.5,ZA,1644359721
106,San Quintín,30.4833,-115.95,68.05,27,3,8.52,MX,1644359722
107,Vilhena,-12.7406,-60.1458,80.82,74,40,8.05,BR,1644359722
108,Hancheng,32.5186,112.3522,33.3,69,100,2.3,CN,1644359722
109,Souillac,-20.5167,57.5167,75.58,88,75,4.61,MU,1644359723
110,Berbera,10.4396,45.0143,74.53,72,5,5.37,SO,1644359654
111,Constantine,36.365,6.6147,40.41,93,40,4.61,DZ,1644359723
112,Camopi,3.1655,-52.3158,72.95,99,60,2.77,GF,1644359723
113,Lompoc,34.6391,-120.4579,80.78,38,0,13.8,US,1644359724
114,Aden,12.7794,45.0367,76.66,71,28,16.11,YE,1644359724
115,Castro,-24.7911,-50.0119,65.17,87,72,5.23,BR,1644359725
116,Lüderitz,-26.6481,15.1594,70.97,72,22,9.64,NA,1644359725
117,Grindavik,63.8424,-22.4338,30.67,93,75,10.36,IS,1644359611
118,Chokurdakh,70.6333,147.9167,-43.78,100,97,5.66,RU,1644359503
119,Pierre,44.3683,-100.351,54.52,44,20,29.93,US,1644359153
120,Khatanga,71.9667,102.5,4.68,85,100,15.86,RU,1644359696
121,Biak,-0.9131,122.8766,76.42,79,100,3.09,ID,1644359726
122,Maesteg,51.6093,-3.6582,48.81,90,100,17.13,GB,1644359726
123,Kaitangata,-46.2817,169.8464,59.14,85,100,9.91,NZ,1644359727
124,Seoul,37.5683,126.9778,17.2,92,20,3.44,KR,1644359682
125,Chulumani,-16.4096,-67.5263,64.35,97,99,2.64,BO,1644359727
126,Beringovskiy,63.05,179.3167,-17.46,88,5,13.0,RU,1644359727
127,Baykit,61.67,96.37,-24.16,99,10,2.59,RU,1644359728
128,Tamiahua,21.2667,-97.45,63.72,55,35,9.08,MX,1644359728
129,Mount Gambier,-37.8333,140.7667,67.91,73,40,10.36,AU,1644359728
130,Tromsø,69.6496,18.957,32.02,64,20,21.85,NO,1644359671
131,Ellesmere Port,53.2788,-2.9013,52.79,84,100,13.06,GB,1644359729
132,Vostok,46.4856,135.8833,-2.88,99,98,3.33,RU,1644359730
133,Rawson,-43.3002,-65.1023,64.56,54,67,20.29,AR,1644359730
134,Valparaíso,-33.0393,-71.6273,67.48,78,75,10.36,CL,1644359730
135,Athabasca,54.7169,-113.2854,42.62,87,46,4.5,CA,1644359558
136,Te Anau,-45.4167,167.7167,64.17,71,92,0.96,NZ,1644359731
137,Kupang,-10.1667,123.5833,80.51,80,99,1.32,ID,1644359731
138,Thompson,55.7435,-97.8558,17.76,79,100,13.8,CA,1644359731
139,Sharlyk,52.9167,54.75,13.17,96,100,4.54,RU,1644359732
140,Karpathos,35.507,27.2132,48.16,76,83,25.32,GR,1644359732
141,Bamiantong,44.9333,130.5333,-5.26,99,58,3.56,CN,1644359733
142,Emba,48.8264,58.1442,7.43,98,100,3.96,KZ,1644359733
143,Cherskiy,68.75,161.3,-42.38,99,83,4.07,RU,1644359733
144,Constitución,-35.3333,-72.4167,66.7,73,26,17.45,CL,1644359487
145,Chui,-33.6971,-53.4616,64.69,72,8,6.73,UY,1644359734
146,New Norfolk,-42.7826,147.0587,67.66,61,64,3.47,AU,1644359734
147,Fort Nelson,58.8053,-122.7002,4.59,72,75,2.3,CA,1644359515
148,San Isidro,-12.1167,-77.05,71.19,81,40,8.05,PE,1644359734
149,Akdağmadeni,39.6603,35.8836,35.74,76,97,16.58,TR,1644359735
150,Hasaki,35.7333,140.8333,34.29,61,97,16.89,JP,1644359453
151,Vao,-22.6667,167.4833,80.91,88,67,20.56,NC,1644359735
152,Henties Bay,-22.116,14.2845,69.85,83,17,1.34,NA,1644359736
153,Nikolskoye,59.7035,30.7861,28.8,96,100,4.81,RU,1644359736
154,Olinda,-8.0089,-34.8553,83.93,65,40,6.91,BR,1644359737
155,Santa Rosa,14.3122,121.1114,78.85,76,14,10.63,PH,1644359737
156,Kailua,21.4022,-157.7394,80.58,66,75,11.5,US,1644359489
157,Praia da Vitória,38.7333,-27.0667,57.76,88,40,11.3,PT,1644359738
158,Burns Lake,54.2331,-125.7533,42.22,93,100,4.5,CA,1644359738
159,Corrente,-3.7367,-43.3394,75.47,91,71,3.51,BR,1644359738
160,Ponta do Sol,32.6667,-17.1,66.83,48,40,10.4,PT,1644359739
161,Kashgar,39.4547,75.9797,25.81,63,75,2.24,CN,1644359739
162,Jamestown,42.097,-79.2353,27.09,74,100,9.22,US,1644359740
163,Sungai Raya,0.7,108.9,75.56,90,94,3.09,ID,1644359740
164,Cabedelo,-6.9811,-34.8339,81.27,74,5,13.51,BR,1644359740
165,Stornoway,58.2093,-6.3865,37.92,87,75,21.85,GB,1644359741
166,Nanortalik,60.1432,-45.2371,10.22,64,5,22.55,GL,1644359612
167,Nibbar,36.2941,8.7666,39.88,70,20,2.3,TN,1644359741
168,Campoverde,-8.4753,-74.8058,83.89,96,87,2.08,PE,1644359741
169,Bathsheba,13.2167,-59.5167,77.61,69,40,17.27,BB,1644359742
170,Kodinsk,58.6881,99.1844,-26.5,100,50,3.02,RU,1644359742
171,Nome,64.5011,-165.4064,1.47,55,100,21.85,US,1644359743
172,Wuxi,31.5689,120.2886,37.98,75,99,5.35,CN,1644359608
173,Jieshi,22.8134,115.8257,55.94,82,99,13.62,CN,1644359743
174,Tiksi,71.6872,128.8694,-18.42,98,79,9.08,RU,1644359744
175,East Wenatchee Bench,47.4257,-120.2812,53.73,67,0,9.22,US,1644359744
176,Bandar-e Lengeh,26.5579,54.8807,65.62,46,0,4.74,IR,1644359744
177,Hofn,64.2539,-15.2082,28.89,63,88,16.71,IS,1644359745
178,Atar,20.5169,-13.0499,74.25,10,79,9.66,MR,1644359745
179,Tocopilla,-22.092,-70.1979,70.65,67,15,9.71,CL,1644359513
180,Poum,-20.2333,164.0167,81.9,86,100,27.13,NC,1644359609
181,Calama,-22.4667,-68.9333,73.89,13,0,23.02,CL,1644359746
182,Touros,-5.1989,-35.4608,83.3,70,4,15.48,BR,1644359746
183,Tuktoyaktuk,69.4541,-133.0374,-40.0,67,20,3.44,CA,1644359747
184,Pevek,69.7008,170.3133,-31.83,100,48,4.79,RU,1644359747
185,Nānākuli,21.3906,-158.1547,80.55,57,40,6.91,US,1644359747
186,Mahébourg,-20.4081,57.7,75.49,88,75,4.61,MU,1644359748
187,Lagan,45.3929,47.3707,34.97,80,85,16.93,RU,1644359748
188,Papara,-3.9839,-38.7273,81.0,88,11,3.47,BR,1644359749
189,Qorveh,35.1664,47.8045,25.41,65,22,4.72,IR,1644359749
190,Moche,-8.1711,-79.0092,69.98,83,75,8.05,PE,1644359749
191,Bucerías,20.75,-105.3333,75.97,69,0,9.22,MX,1644359683
192,Hervey Bay,-25.2986,152.8535,79.03,75,37,7.0,AU,1644359750
193,Brae,60.3964,-1.353,40.91,76,97,33.35,GB,1644359750
194,Ketchikan,55.3422,-131.6461,44.58,93,100,16.11,US,1644359751
195,Comodoro Rivadavia,-45.8667,-67.5,66.06,45,0,21.85,AR,1644359751
196,Kānt,27.8,79.8,55.83,84,56,4.83,IN,1644359752
197,San Diego de Los Baños,22.6467,-83.3697,75.56,65,51,1.59,CU,1644359752
198,Hithadhoo,-0.6,73.0833,82.2,69,100,14.12,MV,1644359753
199,Aklavik,68.2191,-135.0107,-31.97,67,20,3.44,CA,1644359753
200,Verkhnyaya Inta,65.9811,60.3094,-3.48,89,85,5.08,RU,1644359753
201,Posse,-14.0931,-46.3694,69.53,89,90,2.28,BR,1644359754
202,Kastornoye,51.8334,38.1302,28.38,96,100,8.46,RU,1644359754
203,Mar del Plata,-38.0023,-57.5575,68.02,82,0,15.01,AR,1644359749
204,Provideniya,64.3833,-173.3,-3.89,65,0,24.61,RU,1644359755
205,Batagay-Alyta,67.8006,130.4114,-32.51,96,63,3.71,RU,1644359755
206,Forsytheganj,52.6333,29.7333,28.62,97,99,9.19,BY,1644359755
207,Oromocto,45.8351,-66.4792,34.95,96,100,12.66,CA,1644359756
208,Longyearbyen,78.2186,15.6401,17.44,62,75,9.22,SJ,1644359587
209,Çubuk,40.2386,33.0322,40.75,75,75,8.05,TR,1644359756
210,Pitimbu,-7.4706,-34.8086,81.19,75,7,13.38,BR,1644359756
211,Broome,42.2506,-75.833,31.01,78,100,4.61,US,1644359757
212,Jijiga,9.35,42.8,59.43,51,19,6.22,ET,1644359757
213,Saint Paul Harbor,57.79,-152.4072,26.11,59,0,13.8,US,1644359529
214,Oranjestad,12.524,-70.027,82.35,74,40,19.57,AW,1644359758
215,Keizer,44.9901,-123.0262,56.25,69,0,5.75,US,1644359496
216,Nelson Bay,-32.7167,152.15,74.28,78,5,1.99,AU,1644359758
217,Bushehr,28.9684,50.8385,57.29,72,0,11.5,IR,1644359758
218,West Odessa,31.8424,-102.4988,65.41,17,0,17.27,US,1644359759
219,Kathmandu,27.7167,85.3167,44.82,93,40,3.44,NP,1644359759
220,Caldwell,43.6629,-116.6874,43.2,56,0,4.61,US,1644359535
221,Gawler,-34.6,138.7333,70.21,77,1,7.4,AU,1644359760
222,Port Hardy,50.6996,-127.4199,46.76,93,100,14.97,CA,1644359760
223,Grand-Santi,4.25,-54.3833,73.15,98,76,2.44,GF,1644359761
224,Hailey,43.5196,-114.3153,38.89,74,0,9.22,US,1644359761
225,Kalmunai,7.4167,81.8167,76.33,72,100,8.19,LK,1644359761
226,Dikson,73.5069,80.5464,1.71,95,100,22.15,RU,1644359762
227,Marzuq,14.4,46.4667,58.57,32,16,2.55,YE,1644359658
228,Waipawa,-41.4122,175.5153,67.46,76,98,6.82,NZ,1644359762
229,Teknāf,20.8624,92.3058,59.7,59,41,8.32,BD,1644359763
230,Fuerte Olimpo,-21.0415,-57.8738,78.93,22,0,4.7,PY,1644359763
231,Viedma,-40.8135,-62.9967,77.59,40,70,12.55,AR,1644359763
232,Price,39.5994,-110.8107,52.86,19,0,16.11,US,1644359764
233,Tessalit,20.1986,1.0114,66.79,9,0,9.84,ML,1644359764
234,Maxixe,-23.8597,35.3472,71.64,92,0,5.1,MZ,1644359765
235,Ust'-Omchug,61.15,149.6333,-25.06,85,51,1.34,RU,1644359765
236,Los Llanos de Aridane,28.6585,-17.9182,65.12,52,0,8.05,ES,1644359765
237,Torbay,47.6666,-52.7314,29.26,84,100,17.27,CA,1644359732
238,Aksarka,66.5606,67.7975,-4.65,99,100,12.35,RU,1644359766
239,Vanimo,-2.6741,141.3028,80.4,84,82,3.6,PG,1644359766
240,Arman',59.7,150.1667,-1.3,80,77,8.14,RU,1644359767
241,Asău,46.4333,26.4,24.28,88,18,7.31,RO,1644359630
242,Leningradskiy,69.3833,178.4167,-26.57,82,14,3.85,RU,1644359767
243,Talnakh,69.4865,88.3972,-0.8,96,100,11.63,RU,1644359592
244,Samarai,-10.6167,150.6667,82.78,73,49,3.91,PG,1644359768
245,Soe,-9.8607,124.284,69.94,88,96,2.19,ID,1644359768
246,Upernavik,72.7868,-56.1549,-17.14,92,100,6.46,GL,1644359769
247,Vodnyy,63.5046,53.4095,6.21,94,91,7.81,RU,1644359769
248,Laguna,38.421,-121.4238,75.29,44,0,3.44,US,1644359769
249,Dogondoutchi,13.6393,4.0287,73.99,13,3,10.09,NE,1644359770
250,Springfield,37.2153,-93.2982,60.82,38,0,14.97,US,1644359368
251,Pathein,16.7833,94.7333,62.96,69,80,5.17,MM,1644359770
252,Saint-Philippe,-21.3585,55.7679,76.55,87,82,8.63,RE,1644359771
253,Laval,45.57,-73.692,30.54,81,75,9.22,CA,1644359632
254,Guerrero Negro,27.9769,-114.0611,72.37,26,24,10.76,MX,1644359649
255,Nakhodka,42.8333,132.8947,20.95,67,0,5.44,RU,1644359771
256,Warragul,-38.1667,145.9333,74.28,57,98,1.41,AU,1644359772
257,São João da Barra,-21.6403,-41.0511,74.17,96,85,10.58,BR,1644359772
258,Kumul,42.8,93.45,23.04,43,0,2.59,CN,1644359773
259,Kuah,6.3265,99.8432,80.58,83,20,1.14,MY,1644359773
260,Tezu,27.9167,96.1667,53.37,67,78,2.91,IN,1644359773
261,Ruidoso,33.3317,-105.673,56.05,23,0,9.22,US,1644359774
262,Santo Domingo,18.5001,-69.9886,80.28,89,96,1.68,DO,1644359654
263,Faya,18.3851,42.4509,51.91,73,15,1.5,SA,1644359684
264,Lakselv,70.0513,24.9718,26.42,74,40,25.32,NO,1644359774
265,Vaitape,-16.5167,-151.75,81.45,77,19,19.08,PF,1644359775
266,Ploemeur,47.7333,-3.4333,45.86,97,100,5.75,FR,1644359775
267,Manaure,11.7751,-72.4445,82.51,65,81,18.05,CO,1644359775
268,Cedar City,37.6775,-113.0619,53.4,19,0,20.71,US,1644359776
269,Northam,51.0333,-4.2167,50.02,93,100,16.6,GB,1644359686
270,Bakloh,32.4667,75.9167,43.5,64,84,5.95,IN,1644359776
271,Yerbogachën,61.2767,108.0108,-25.37,100,100,3.33,RU,1644359777
272,Puerto Concordia,2.6221,-72.7572,72.19,97,100,3.4,CO,1644359777
273,Manta,-0.95,-80.7333,78.58,78,40,11.5,EC,1644359547
274,Saint George,37.1041,-113.5841,67.24,16,0,5.75,US,1644359765
275,Gaoua,10.2992,-3.2508,78.67,16,8,4.03,BF,1644359778
276,Yima,34.7381,111.8839,31.26,66,100,5.23,CN,1644359778
277,Gambēla,8.25,34.5833,86.04,28,100,3.09,ET,1644359487
278,Cabo San Lucas,22.8909,-109.9124,78.62,55,0,8.05,MX,1644359655
279,Skibbereen,51.55,-9.2667,51.6,96,100,10.38,IE,1644359779
280,Luganville,-15.5333,167.1667,80.87,79,100,10.96,VU,1644359779
281,Manakara,-22.1333,48.0167,77.52,93,91,9.31,MG,1644359780
282,Alofi,-19.0595,-169.9187,75.09,94,100,3.44,NU,1644359606
283,St. Pete Beach,27.7253,-82.7412,56.16,86,100,10.36,US,1644359780
284,Sistranda,63.7256,8.834,37.9,77,100,37.63,NO,1644359781
285,Marystown,47.1666,-55.1483,33.85,100,100,3.0,CA,1644359781
286,Rocha,-34.4833,-54.3333,62.11,76,2,4.83,UY,1644359607
287,Saint Anthony,45.0205,-93.218,44.62,56,0,17.27,US,1644359781
288,Dingle,10.9995,122.6711,74.8,87,93,10.85,PH,1644359689
289,Adrar,20.5022,-10.0711,66.99,11,76,10.56,MR,1644359782
290,Río Gallegos,-51.6226,-69.2181,62.65,25,40,11.5,AR,1644359782
291,São Filipe,14.8961,-24.4956,72.41,74,2,2.68,CV,1644359783
292,Mikuni,36.2171,136.1519,33.71,71,52,16.2,JP,1644359783
293,Coquimbo,-29.9533,-71.3436,65.93,77,75,10.36,CL,1644359510
294,College,64.8569,-147.8028,5.32,72,75,4.61,US,1644359784
295,Limoeiro de Anadia,-9.7406,-36.5028,77.74,80,16,9.78,BR,1644359784
296,Matara,5.9485,80.5353,75.42,78,99,3.11,LK,1644359784
297,Pimentel,-6.8367,-79.9342,73.69,68,0,18.41,PE,1644359785
298,Midland,31.9974,-102.0779,66.06,15,0,18.41,US,1644359646
299,Kenai,60.5544,-151.2583,29.03,83,100,26.46,US,1644359785
300,Kangalassy,62.3464,129.9628,-36.08,100,100,1.74,RU,1644359785
301,Lebu,-37.6167,-73.65,61.5,82,16,17.78,CL,1644359728
302,Plettenberg Bay,-34.0527,23.3716,66.7,69,37,5.53,ZA,1644359786
303,Goya,-29.14,-59.2626,78.8,28,0,5.21,AR,1644359786
304,Lamar,33.6668,-95.5836,64.56,22,0,17.27,US,1644359787
305,Oranjemund,-28.55,16.4333,64.76,90,8,5.57,NA,1644359787
306,Tomatlán,19.9333,-105.25,85.64,28,0,10.47,MX,1644359788
307,Wonthaggi,-38.6044,145.5913,74.37,59,99,6.55,AU,1644359788
308,Vila Franca do Campo,37.7167,-25.4333,57.2,77,98,7.85,PT,1644359788
309,Raja,8.4596,25.678,69.42,19,13,3.96,SS,1644359789
310,Gainesville,29.6516,-82.3248,53.56,75,0,3.44,US,1644359576
311,Esperance,-33.8667,121.9,57.04,64,36,5.1,AU,1644359789
312,Tuatapere,-46.1333,167.6833,60.82,65,93,4.18,NZ,1644359790
313,Teya,60.3778,92.6267,-24.23,100,40,0.74,RU,1644359790
314,Hualmay,-11.0964,-77.6139,72.19,76,35,7.7,PE,1644359790
315,Maceió,-9.6658,-35.7353,80.04,78,0,8.05,BR,1644359790
316,Mount Isa,-20.7333,139.5,78.57,73,3,0.0,AU,1644359791
317,Majene,-3.5403,118.9707,77.95,85,100,3.44,ID,1644359791
318,Ayan,56.45,138.1667,8.29,76,100,6.64,RU,1644359791
319,Mgandu,-5.95,34.1333,60.22,96,94,2.55,TZ,1644359792
320,Hennenman,-27.9765,27.0242,67.41,52,32,7.99,ZA,1644359792
321,Lærdal,61.098,7.4816,39.94,96,100,9.42,NO,1644359793
322,Bambanglipuro,-7.95,110.2833,75.76,87,98,3.91,ID,1644359793
323,Phuket,8.0,98.25,75.42,100,20,1.14,TH,1644359794
324,Shingū,33.7333,135.9833,39.85,80,100,4.83,JP,1644359794
325,Rudnogorsk,57.2639,103.7519,-19.41,97,88,5.03,RU,1644359794
326,Keşan,40.8558,26.6303,41.49,73,94,18.14,TR,1644359795
327,Ciudad Bolivar,8.1222,-63.5497,85.33,53,92,9.31,VE,1644359795
328,Sabang,5.8933,95.3214,81.43,74,98,10.0,ID,1644359795
329,Uruana,-15.4981,-49.6875,69.66,95,100,2.64,BR,1644359796
330,St. George's,12.0564,-61.7485,80.28,69,20,11.5,GD,1644359796
331,Nakhon Phanom,17.3333,104.4167,66.02,89,51,5.75,TH,1644359796
332,Nuuk,64.1835,-51.7216,7.41,66,75,18.41,GL,1644359647
333,Hobyo,5.3505,48.5268,75.94,72,35,20.54,SO,1644359797
334,Tura,25.5198,90.2201,53.06,73,2,3.2,IN,1644359797
335,Alice Springs,-23.7,133.8833,74.75,83,81,0.0,AU,1644359624
336,Huarmey,-10.0681,-78.1522,73.38,75,39,8.25,PE,1644359798
337,Semnan,35.5729,53.3971,33.64,51,0,2.3,IR,1644359798
338,Mayo,38.8876,-76.5119,46.51,47,0,8.05,US,1644359798
339,Grand Gaube,-20.0064,57.6608,75.6,80,70,3.0,MU,1644359799
340,Ixtapa,20.7,-105.2,75.22,69,0,9.22,MX,1644359799
341,Punto Fijo,11.6956,-70.1996,79.12,79,41,27.54,VE,1644359800
342,Klaksvík,62.2266,-6.589,34.72,67,99,42.79,FO,1644359800
343,Boma,7.0805,-2.1697,75.09,56,20,3.09,GH,1644359800
344,Atbasar,51.8,68.3333,9.84,91,100,7.76,KZ,1644359801
345,Mossamedes,-15.1961,12.1522,73.31,79,100,10.76,AO,1644359801
346,Owosso,42.9978,-84.1766,29.71,69,0,10.36,US,1644359801
347,Zarubino,42.63,131.0922,21.13,66,2,4.92,RU,1644359802
348,Mahibadhoo,3.7833,72.9667,81.97,68,100,10.83,MV,1644359802
349,Soubre,5.7856,-6.6083,74.64,89,44,1.7,CI,1644359803
350,Praia,14.9215,-23.5087,70.34,78,0,12.66,CV,1644359524
351,La Ronge,55.1001,-105.2842,16.05,67,75,12.66,CA,1644359576
352,Azul,-36.777,-59.8585,65.71,65,32,4.09,AR,1644359803
353,Morant Bay,17.8815,-76.4093,82.02,82,22,6.76,JM,1644359690
354,Srednekolymsk,67.45,153.6833,-43.62,99,69,5.86,RU,1644359804
355,Svetlaya,46.5389,138.3297,10.4,69,3,8.52,RU,1644359804
356,Okhotsk,59.3833,143.3,5.85,82,100,9.78,RU,1644359804
357,Kasiri,8.9412,-13.1148,80.78,84,20,5.88,SL,1644359805
358,Ippy,6.2679,21.2247,75.27,19,50,6.2,CF,1644359805
359,Pachino,36.7186,15.0907,39.24,53,2,12.1,IT,1644359806
360,Arinos,-15.9169,-46.1056,72.77,91,100,1.7,BR,1644359806
361,Chimoré,-16.9833,-65.1333,75.74,74,89,2.64,BO,1644359806
362,Ancud,-41.8697,-73.8203,65.73,65,54,6.22,CL,1644359806
363,Dudinka,69.4058,86.1778,-0.38,89,100,21.32,RU,1644359593
364,Hambantota,6.1241,81.1185,76.15,68,100,11.5,LK,1644359807
365,Stjørdalshalsen,63.4681,10.9262,37.4,65,75,9.22,NO,1644359807
366,Znamensk,48.5842,45.7338,33.24,87,100,11.14,RU,1644359808
367,Konotop,51.2403,33.2026,28.04,95,100,6.11,UA,1644359808
368,Warrensburg,38.7628,-93.7361,59.56,42,0,14.97,US,1644359809
369,New Smyrna Beach,29.0258,-80.927,54.01,93,75,6.91,US,1644359665
370,Sobolevo,54.4299,31.8996,24.78,94,100,8.23,RU,1644359809
371,São Félix do Xingu,-6.6447,-51.995,73.54,96,68,1.68,BR,1644359809
372,Pisco,-13.7,-76.2167,73.02,73,0,10.36,PE,1644359810
373,Tucumcari,35.1717,-103.725,62.44,14,0,14.97,US,1644359810
374,Sibiti,-3.6819,13.3499,68.29,98,36,1.88,CG,1644359811
375,Atherton,53.5237,-2.4935,52.36,83,100,7.0,GB,1644359629
376,Kalevala,65.2,31.1667,15.15,98,99,5.12,RU,1644359811
377,Katsuura,35.1333,140.3,41.18,70,96,13.27,JP,1644359811
378,Mareeba,-17.0,145.4333,78.48,85,34,3.42,AU,1644359812
379,Saldanha,-33.0117,17.9442,62.65,93,62,6.64,ZA,1644359812
380,Mackay,-21.15,149.2,83.68,78,2,5.75,AU,1644359812
381,Pangai,-19.8,-174.35,80.71,78,75,8.05,TO,1644359813
382,Erenhot,43.6475,111.9767,7.9,77,16,9.84,CN,1644359810
383,Jablah,35.3614,35.9256,55.69,58,75,5.75,SY,1644359813
384,El Alto,-4.2714,-81.2147,74.86,76,57,9.91,PE,1644359814
385,Bambous Virieux,-20.3428,57.7575,75.45,88,75,4.61,MU,1644359558
386,Marabba,12.35,32.1833,73.54,22,11,11.16,SD,1644359814
387,Pacific Grove,36.6177,-121.9166,77.58,51,0,4.61,US,1644359748
388,Ponta Delgada,37.7333,-25.6667,57.51,76,20,8.05,PT,1644359814
389,Luwuk,-0.9516,122.7875,77.86,80,100,3.09,ID,1644359815
390,Barguzin,53.6167,109.6167,0.99,96,99,1.3,RU,1644359815
391,Esim,4.8699,-2.2405,78.26,88,37,6.26,GH,1644359815
392,Quatre Cocos,-20.2078,57.7625,75.31,81,94,7.92,MU,1644359816
393,Isiro,2.7739,27.616,67.03,43,72,0.11,CD,1644359816
394,Pakxan,18.3778,103.6601,66.07,68,98,3.94,LA,1644359817
395,La Rioja,42.25,-2.5,40.05,61,10,5.97,ES,1644359817
396,Arlit,18.7369,7.3853,65.44,9,0,5.37,NE,1644359817
397,Key West,24.5557,-81.7826,77.0,82,100,13.8,US,1644359649
398,Tiznit Province,29.5833,-9.5,63.61,27,2,10.45,MA,1644359818
399,Clyde River,70.4692,-68.5914,-25.37,68,75,0.0,CA,1644359818
400,Sola,-13.8833,167.55,80.78,81,100,30.42,VU,1644359819
401,Nioro,13.35,-15.75,80.92,11,4,7.72,GM,1644359819
402,Vila Velha,-20.3297,-40.2925,80.55,84,40,14.97,BR,1644359820
403,Ballina,-28.8667,153.5667,73.78,72,8,6.91,AU,1644359582
404,Boguchany,58.3814,97.4531,-24.07,100,67,3.8,RU,1644359820
405,San Pedro de Ycuamandiyú,-24.0917,-57.0764,74.93,40,0,0.81,PY,1644359820
406,Santa Maria,-29.6842,-53.8069,79.9,44,20,4.61,BR,1644359656
407,Sterling,39.0062,-77.4286,48.34,36,20,6.91,US,1644359752
408,Ailigandí,9.2333,-78.0167,79.5,82,39,10.92,PA,1644359821
409,Port Blair,11.6667,92.75,77.04,88,40,6.91,IN,1644359821
410,Dalvik,65.9702,-18.5286,28.33,96,100,20.45,IS,1644359822
411,Lichuan,30.3,108.85,27.21,93,91,1.36,CN,1644359822
412,Çayeli,41.0923,40.7292,53.26,63,100,3.74,TR,1644359823
413,George Town,5.4112,100.3354,77.9,92,20,2.3,MY,1644359823
414,Yangi Marg`ilon,40.4272,71.7189,36.75,87,40,4.61,UZ,1644359699
415,Stromness,58.965,-3.296,39.45,84,95,38.59,GB,1644359824
416,Zharkent,44.1628,80.0,27.09,74,100,6.17,KZ,1644359824
417,Morropón,-5.1822,-79.9689,82.78,57,88,4.68,PE,1644359825
418,Menongue,-14.6585,17.691,64.72,93,100,4.12,AO,1644359825
419,Taunggyi,20.7833,97.0333,45.5,44,42,3.11,MM,1644359826
420,Casma,-41.0082,-73.1244,72.68,39,41,6.13,CL,1644359826
421,Lātehār,23.75,84.5,55.71,48,0,5.44,IN,1644359827
422,Wadi Maliz,36.4681,8.5495,42.46,83,1,0.87,TN,1644359827
423,Cayenne,4.9333,-52.3333,80.1,83,75,3.44,GF,1644359828
424,Airai,-8.9266,125.4092,63.97,91,100,0.74,TL,1644359586
425,Mīrābād,30.4362,61.8383,50.41,42,0,7.18,AF,1644359829
426,Avera,33.194,-82.5271,54.72,54,85,2.89,US,1644359830
427,Sinnamary,5.3833,-52.95,76.91,85,67,7.4,GF,1644359830
428,Mata Grande,-9.1175,-37.7322,78.6,55,2,16.02,BR,1644359831
429,Swift Current,50.2834,-107.8014,36.41,69,100,16.11,CA,1644359671
430,Mezhdurechenskiy,59.6,65.9333,0.09,99,96,5.1,RU,1644359831
431,Puerto Colombia,10.9878,-74.9547,82.49,84,9,18.16,CO,1644359832
432,Madimba,-10.4,40.3333,78.15,86,91,9.48,TZ,1644359832
433,Jumla,29.2747,82.1838,27.14,91,83,5.55,NP,1644359832
434,Broken Hill,-31.95,141.4333,74.91,60,55,0.0,AU,1644359833
435,Samfya,-11.3649,29.5565,65.86,95,100,3.58,ZM,1644359833
436,Maniitsoq,65.4167,-52.9,-1.19,89,100,21.43,GL,1644359833
437,Maningrida,-12.0667,134.2667,81.55,79,100,2.62,AU,1644359834
438,Zaliztsi,49.7919,25.373,32.88,98,100,19.51,UA,1644359834
439,Ariquemes,-9.9133,-63.0408,74.59,96,90,1.14,BR,1644359834
440,Sambava,-14.2667,50.1667,74.84,90,54,2.89,MG,1644359835
441,Orcopampa,-15.2661,-72.3417,49.41,74,100,4.97,PE,1644359835
442,Murowana Goślina,52.5746,17.0093,44.24,96,79,14.23,PL,1644359836
443,Muros,42.7762,-9.0603,55.83,82,3,5.84,ES,1644359836
444,Juegang,32.3174,121.1855,38.91,72,78,5.14,CN,1644359836
445,Barra do Corda,-5.5,-45.25,75.6,92,54,3.15,BR,1644359837
446,Mazara del Vallo,37.6641,12.588,48.15,58,0,8.84,IT,1644359837
447,Caravelas,-17.7125,-39.2481,78.35,87,98,7.81,BR,1644359621
448,Aswān,24.0934,32.907,63.7,22,0,11.5,EG,1644359837
449,Vysokogornyy,50.1167,139.15,-8.12,100,99,4.14,RU,1644359838
450,Sainte-Maxime,43.3,6.6333,49.19,92,2,5.5,FR,1644359838
451,Korla,41.7597,86.1469,22.73,54,70,1.86,CN,1644359839
452,Kawalu,-7.3817,108.2082,73.13,93,99,2.26,ID,1644359839
453,Richmond,37.5538,-77.4603,49.87,41,40,10.36,US,1644359629
454,Sivas Province,39.7916,37.0019,36.23,86,75,27.63,TR,1644359840
455,Tautira,-17.7333,-149.15,87.82,78,74,18.34,PF,1644359840
456,Praia,14.9215,-23.5087,70.34,78,0,12.66,CV,1644359840
457,Acandí,8.5063,-77.2778,78.64,84,16,8.14,CO,1644359841
458,Trairi,-3.2778,-39.2689,79.65,78,11,10.87,BR,1644359841
459,Flagstaff,35.1981,-111.6513,60.57,16,0,11.5,US,1644359690
460,Mandalgovi,45.7625,106.2708,2.68,62,2,4.18,MN,1644359842
461,Mushie,-3.0167,16.9,76.03,68,100,2.93,CD,1644359842
462,Erzin,36.9559,36.2,50.52,85,55,8.21,TR,1644359843
463,Fairbanks,64.8378,-147.7164,5.34,72,20,4.61,US,1644359843
464,Yeniseysk,58.4497,92.1703,-23.84,99,7,2.68,RU,1644359843
465,Narsaq,60.9167,-46.05,-10.82,78,16,6.4,GL,1644359844
466,Carahue,-38.7,-73.1667,75.4,61,20,7.02,CL,1644359844
467,Najrān,17.4924,44.1277,54.25,37,1,2.39,SA,1644359844
468,Nouadhibou,20.931,-17.0347,66.18,94,98,10.36,MR,1644359845
469,Kidal,18.4411,1.4078,69.24,9,0,8.77,ML,1644359845
470,Sorgun,39.8101,35.186,33.53,89,92,7.54,TR,1644359846
471,Paita,-5.0892,-81.1144,77.56,76,38,12.28,PE,1644359846
472,Santiago,-33.4569,-70.6483,87.28,30,0,24.16,CL,1644359607
473,Buala,-8.145,159.5921,81.73,83,94,10.25,SB,1644359846
474,Paro,27.4305,89.4133,31.42,89,92,4.36,BT,1644359847
475,Pointe Michel,15.25,-61.3833,75.49,70,7,10.65,DM,1644359847
476,Uberaba,-19.7483,-47.9319,77.58,73,20,5.75,BR,1644359848
477,Aksay,47.26,39.87,39.42,80,100,8.99,RU,1644359848
478,Kirkuk,35.4681,44.3922,48.31,58,61,5.84,IQ,1644359848
479,Uniāra,26.15,75.2167,66.0,43,90,4.41,IN,1644359849
480,Kempsey,-31.0833,152.8333,77.95,69,4,5.01,AU,1644359849
481,Ozinki,51.1786,49.6769,19.53,98,100,10.45,RU,1644359850
482,Mkushi,-13.6202,29.3939,64.11,96,100,1.05,ZM,1644359850
483,Vista Hermosa,19.5167,-99.2167,67.91,39,75,5.75,MX,1644359851
484,Lavrentiya,65.5833,-171.0,-22.81,93,47,11.72,RU,1644359686
485,Xining,36.6167,101.7667,8.26,92,94,2.71,CN,1644359657
486,Halifax,44.6453,-63.5724,41.49,97,100,15.99,CA,1644359758
487,Beira,-19.8436,34.8389,75.29,94,0,5.75,MZ,1644359851
488,Rørvik,64.8621,11.2373,37.51,87,75,24.16,NO,1644359852
489,Kautokeino,69.0125,23.0412,15.93,95,100,11.36,NO,1644359852
490,Severnoye,56.3491,78.3619,-13.31,100,37,6.15,RU,1644359857
491,Jérémie,18.65,-74.1167,77.22,77,41,2.15,HT,1644359857
492,Chapais,49.7834,-74.8492,19.18,97,100,4.56,CA,1644359858
493,Daru,-9.0763,143.2092,78.66,86,99,3.8,PG,1644359858
494,Poroshkovo,48.6683,22.7533,37.45,97,100,1.54,UA,1644359858
495,Lensk,60.7253,114.9278,-11.51,99,100,1.92,RU,1644359590
496,Les Cayes,18.2,-73.75,76.17,81,10,6.4,HT,1644359859
497,Ardeşen,41.1911,40.9875,51.76,64,100,5.32,TR,1644359859
498,Iberia,29.9502,-91.7507,62.67,22,0,5.75,US,1644359860
499,Gemeente Wageningen,51.9667,5.6667,50.2,83,100,11.5,NL,1644359860
500,Ranong,9.9658,98.6348,75.27,90,5,3.94,TH,1644359860
501,Mitsamiouli,-11.3847,43.2844,81.03,78,100,12.91,KM,1644359861
502,Barabai,-2.5833,115.3833,73.29,97,100,2.39,ID,1644359861
503,Wiset Chai Chan,14.5989,100.3617,79.02,69,18,3.44,TH,1644359862
504,Kashary,49.04,41.0056,32.7,99,100,9.71,RU,1644359862
505,Tanete,-3.9443,119.7848,75.67,94,100,2.59,ID,1644359863
506,Zhangaözen,43.3,52.8,31.3,68,83,13.82,KZ,1644359863
507,Osypenko,46.9136,36.8253,38.84,95,100,9.01,UA,1644359863
508,Xaçmaz,41.4635,48.806,38.93,68,46,5.01,AZ,1644359864
509,Nhulunbuy,-12.2333,136.7667,79.41,94,82,0.0,AU,1644359864
510,Sri Aman,1.2376,111.4621,73.45,94,99,0.0,MY,1644359865
511,Annau,37.8876,58.516,35.1,55,1,4.61,TM,1644359865
512,Yulara,-25.2406,130.9889,76.84,73,100,10.36,AU,1644359865
513,Mangan,27.5167,88.5333,47.26,67,90,4.68,IN,1644359866
514,Muisne,0.6,-80.0333,80.71,83,87,6.62,EC,1644359866
515,Galesong,-5.3166,119.3661,73.42,82,99,4.68,ID,1644359866
516,Maputo,-25.9653,32.5892,76.23,81,0,1.01,MZ,1644359867
517,Namatanai,-3.6667,152.4333,83.08,72,100,5.55,PG,1644359867
518,Langenburg,49.2544,9.8458,43.32,93,100,10.36,DE,1644359867
519,Yangambi,0.8102,24.4336,72.12,56,41,1.48,CD,1644359868
520,Genhe,50.7833,121.5167,-6.16,100,99,1.7,CN,1644359868
521,Fortuna,40.5982,-124.1573,63.86,72,0,11.5,US,1644359869
522,Pouembout,-21.1333,164.9,80.06,89,100,13.85,NC,1644359869
523,Preston,53.7667,-2.7167,53.58,95,100,11.59,GB,1644359869
524,Kentau,43.5206,68.5094,28.56,85,100,4.25,KZ,1644359870
525,Husavik,66.0449,-17.3389,28.31,95,100,23.11,IS,1644359870
526,Bosaso,11.2842,49.1816,72.52,73,30,3.29,SO,1644359870
527,Tank,32.2217,70.3793,55.22,51,0,5.14,PK,1644359871
528,Shambu,9.5667,37.1,54.3,74,100,2.33,ET,1644359871
529,Khāsh,28.2211,61.2158,43.88,39,0,3.6,IR,1644359871
530,Cockburn Town,21.4612,-71.1419,78.76,65,40,17.27,TC,1644359872
531,Eyl,7.9803,49.8164,72.91,72,55,14.85,SO,1644359872
532,Kutum,14.2,24.6667,56.41,17,1,6.93,SD,1644359873
533,Quzhou,28.9594,118.8686,39.9,96,100,4.07,CN,1644359873
534,Isangel,-19.55,169.2667,82.51,94,75,4.61,VU,1644359873
535,Atasū,48.6814,71.6433,5.86,90,100,6.62,KZ,1644359874
536,Guarapari,-20.6667,-40.4975,80.49,92,55,11.1,BR,1644359874
537,Turukhansk,65.8167,87.9833,-17.61,92,100,5.37,RU,1644359875
538,Bruck an der Leitha,48.0167,16.7667,48.4,66,100,23.02,AT,1644359875
539,Lake Havasu City,34.4839,-114.3224,78.1,10,0,16.11,US,1644359875
540,Singaparna,-7.3515,108.111,72.25,92,99,2.42,ID,1644359876
541,Puerto Escondido,15.85,-97.0667,83.23,69,40,5.75,MX,1644359655
542,Dandong,40.1292,124.3947,17.47,81,57,3.0,CN,1644359865
543,Hudiksvall,61.729,17.1036,25.79,79,4,6.71,SE,1644359876
544,Tiarei,-17.5333,-149.3333,87.82,80,88,19.06,PF,1644359877
545,Ichhāwar,23.0167,77.0167,59.74,44,1,5.59,IN,1644359877
546,Payson,40.0444,-111.7321,49.35,33,40,3.44,US,1644359634
547,Port-Gentil,-0.7193,8.7815,80.64,80,57,8.77,GA,1644359878
548,Yonezawa,37.9167,140.1167,31.14,87,63,5.57,JP,1644359878
549,Gudāri,19.35,83.7833,62.46,96,45,1.28,IN,1644359878
550,Gachsaran,30.3586,50.7981,39.29,87,0,0.0,IR,1644359879
551,Aksu,41.1231,80.2644,27.93,56,100,2.19,CN,1644359879
552,Voskresenskoye,56.8381,45.4317,28.24,97,100,8.16,RU,1644359879
553,Raduzhny,62.0961,77.475,-14.53,98,8,6.08,RU,1644359880
554,Bandarbeyla,9.4942,50.8122,75.7,67,67,17.94,SO,1644359880
555,Tumsar,21.3833,79.7333,67.62,37,100,3.09,IN,1644359881
556,Skellefteå,64.7507,20.9528,16.16,92,26,0.0,SE,1644359881
557,Banda Aceh,5.5577,95.3222,77.9,81,83,3.87,ID,1644359882
558,Trelew,-43.249,-65.3051,65.21,45,67,21.77,AR,1644359882
559,Dunmanway,51.7167,-9.1167,50.99,95,100,8.39,IE,1644359882
560,Businga,3.3333,20.8833,71.98,32,79,1.07,CD,1644359883
561,Ushtobe,45.2514,77.9838,16.21,91,100,6.33,KZ,1644359883
562,Tonantins,-2.8731,-67.8022,72.32,99,100,1.66,BR,1644359884
