,city,lat,lon,temp,humidity,cloudiness,wind_speed,country,date
0,praia da vitoria,38.7333,-27.0667,62.76,81,72,17.07,PT,1644073670
1,rikitea,-23.1203,-134.9692,78.37,73,22,11.07,PF,1644073663
2,harrisonburg,38.4496,-78.8689,30.24,53,75,10.36,US,1644073433
3,hermanus,-34.4187,19.2345,91.9,50,38,22.95,ZA,1644073558
4,punta arenas,-53.15,-70.9167,62.71,51,75,21.85,CL,1644073572
5,nogliki,51.8333,143.1667,5.5,92,100,22.68,RU,1644073671
6,fairbanks,64.8378,-147.7164,1.09,78,0,0.0,US,1644073532
7,talnakh,69.4865,88.3972,-12.75,100,94,2.37,RU,1644073671
8,port alfred,-33.5906,26.891,70.05,83,98,23.62,ZA,1644073563
